nome,tipo,indirizzo_stradale,comune,provincia,cap,lat,lon,telefono,website,email,orari,cucina,osm_id,osm_type
Antares,ristorante,,,VR,,45.3699236,10.871463,,,,,,249561406,node
Bar Ferrari,caffè,,,VR,,45.3009863,10.7885246,,,,,,268411645,node
La Volpe,pub,,,VR,,45.2978857,10.7830751,,,,,,268411646,node
Bar,caffè,,,VR,,45.2931824,10.7760861,,,,,,268411647,node
Colombare,ristorante,,,VR,,45.4541858,11.0067378,,,,,,270478264,node
Bar Nautica,bar,Via Marra,Lazise,VR,37017,45.5030472,10.7332556,,,,,,278605159,node
Hermes,fast_food,,,VR,,45.5400429,10.780783,,,,,,292588473,node
Nuevo foodland,fast_food,,,VR,,45.5406434,10.7792531,,,,,,292588474,node
Senza nome,caffè,,,VR,,45.2685391,10.7702452,,,,,,293103903,node
Senza nome,caffè,,,VR,,45.266879,10.766415,,,,,,293105172,node
Senza nome,caffè,,,VR,,45.2650637,10.7671387,,,,,,293109269,node
Ristorante all'Ancora,ristorante,"Via Massimiliano Custoza, 111",Roverbella,VR,46048,45.2651637,10.7671838,+390376693170,,info@ristoranteallancora.com,"Tu-We off; Mo, Th-Sa 12:30-14:00, 19:30-21:45; Su 12:30-14:00, 19:30-21:30",fish,293109271,node
Bar Gelateria Cristallo,bar,"Piazza Giacomo Matteotti, 69",,VR,37011,45.546671,10.719668,+39 045 7210045,,,,,298523510,node
Rondò,caffè,,,VR,,45.4094937,11.2145317,,,,,,334514761,node
Caffè Il Mulino,bar,"Via Raffaello Sanzio, 16a",Borghetto di Valeggio sul Mincio,VR,37067,45.3538221,10.7247103,,,,,,338330490,node
Senza nome,bar,,,VR,,45.3537451,10.7247122,,,,,,338330492,node
Ristorante San Marco,ristorante,"Via Raffaello Sanzio, 10",Borghetto di Valeggio sul Mincio,VR,37067,45.3538071,10.7254287,,,,,italian,338330496,node
Trattoria El Fogolar,ristorante,"Via Giuseppe Mazzini, 151",Quaderni,VR,37069,45.3298937,10.788926,+39 045 794 0176,,,,regional,338345093,node
Cafè Divino,bar,"Via Carlo Montanari, 4",Mozzecane,VR,37060,45.3087492,10.8169632,+39 3389174741,,,,,338378701,node
Agli Americani,pub,,,VR,,45.4085945,11.2242932,,,,,,341795875,node
Pizzeria Il Pirata,ristorante,,,VR,,45.6908462,11.3726274,+390445511315,,,,pizza,343336537,node
Pizzeria Da Angelo,ristorante,,,VR,,45.68532,11.3782251,,,,"PH,We-Mo 17:00-01:00",pizza,343336577,node
Ristorante Due Mori - specialità pesce,ristorante,"Via Sant'Antonio, 41",San Vito di Leguzzano,VR,36030,45.6827383,11.3758934,,,,"Tu-Su 09:00-15:30,18:30-01:00",,348237880,node
Senza nome,panetteria,,,VR,,45.4931634,11.0190448,,,,,,360671268,node
Trattoria Pizzeria Quinto Miglio,ristorante,"Via Valpantena, 62a",Verona,VR,37142,45.4940857,11.0189187,+39 045 550361,https://www.quintomiglio.it/,,,,360676954,node
Villa Bongiovanni,ristorante,,,VR,,45.4138108,11.3280567,,,,,,377693849,node
Locanda Le Muse,ristorante,,,VR,,45.412911,11.3279343,,,,,,377694580,node
Rosso Peperone,ristorante,,,VR,,45.4838204,10.869978,,,,,,382906420,node
Sale e Pepe,caffè,,,VR,,45.4387818,10.7017719,,,,,,385674064,node
"Agriturismo ""Il Nuovo Borgo""",ristorante,"Via Borgo, 31",Montebello Vicentino,VR,,45.4716474,11.3949597,+39 0444 648300,,,"Su 12:00-15:00, Tu-Sa 12:00-15:00,19:00-22:30",italian,387742602,node
Villa Vento,ristorante,"Via Ossario, 24",Sommacampagna,VR,37066,45.3816717,10.7942944,+39 045 516003,https://www.ristorantevillavento.com/it/index.php,,"We-Su 12:15-14:00, 19:15-22:30, Mo-Tu off",,387777516,node
Piper,ristorante,,,VR,,45.4665727,11.0069433,,,,,,411286172,node
Senza nome,pub,,,VR,,45.4974098,11.0180448,,,,,,411481870,node
Pizzeria f222,ristorante,"Via Colonnello Giovanni Fincato, 222",Verona,VR,37131,45.4527461,11.0197745,,http://www.f222.it/,,,pizza,416517197,node
Bar Arsenale,bar,,,VR,,45.4415997,10.9868188,,,,,,419187675,node
Senza nome,caffè,,,VR,,45.4610401,10.9800603,,,,,,419197949,node
Senza nome,pub,,,VR,,45.4387867,10.9831152,,,,,,420190909,node
Bar autostazione,caffè,"Via Goffredo Mameli, 2",Verona,VR,37126,45.4497447,10.9936351,,,,,,428444946,node
Il Bacco d'oro - Parco di Venere,ristorante,"Via Venturi, 14",,VR,37030,45.4696387,11.1296585,,,,,,430617722,node
"Agriturismo ""La Cueva""",ristorante,,,VR,,45.386176,11.2658878,,,,,,432817213,node
Via Verde,ristorante,,,VR,,45.5960477,11.1066197,,,,,,441073455,node
Vintage cafe,bar,,,VR,,45.5143739,10.893777,,,,,,441248368,node
Pizza Planet,pub,"Via Croce, 1",Lazise,VR,,45.4717759,10.7423311,,,,,,446993510,node
Trattoria Molini,ristorante,"Via Valtesina, 21",Garda,VR,37016,45.5861613,10.7259967,+39 045 7256339,,,,regional,446993635,node
Absolute Cafè,bar,,,VR,,45.3719744,11.0328659,,,,,,447877957,node
Bar Magic,bar,,,VR,,45.3725352,11.0334496,,,,,,447877959,node
Pedrera 7.2,bar,,,VR,,45.5536705,10.7819821,,,,,,450126697,node
La Costa In Bra',ristorante,"Piazza Bra, 2",Verona,VR,37121,45.4396053,10.9932447,+39 045 597468,https://www.lacostainbra.it/,,Mo-Su 09:00-24:00,italian;pizza,455115982,node
Senza nome,bar,,,VR,,45.5735814,11.2277398,,,,,,472582059,node
Bellavista,ristorante,,,VR,,45.5937063,11.2094122,,,,,italian;pizza,472582348,node
Adele,ristorante,Via Villa Bolca,Bolca di Vestenanova,VR,37030,45.5942503,11.2078831,,,,,italian,472582378,node
Alla Palazzina,ristorante,"Località Prada Bassa, 11",San Zeno di Montagna,VR,37010,45.6650663,10.7711753,+39 045 6289251,,,,,474971982,node
Ristorante Pizzeria La Staffa,ristorante,,,VR,,45.3735356,11.2870075,+39 045 7636411,,,,pizza,475335023,node
Il Castagneto,ristorante,"Via Corrubio, 7",San Zeno di Montagna,VR,37010,45.6413101,10.7542011,+39 0457285121,https://hotelcastagnetosanzeno.it/,,,,475542083,node
Albergo Capriolo,ristorante,"Contrada Pra' Bestema', 38",San Zeno di Montagna,VR,37010,45.6474167,10.7561233,+39 045 7285127,,,,,475542085,node
Bar Italia,bar,,,VR,,45.3803677,11.2092581,,,,,,475591971,node
"Pizzeria ""Al gatto verde""",ristorante,,,VR,,45.380536,11.2128448,,,,,,475593850,node
Panificio Rossi,bar,,,VR,,45.3820065,11.2096524,,,,,,475600041,node
Pizza&pizza,fast_food,,,VR,,45.3820016,11.2092288,,,,,pizza,475620272,node
Caffè 73,caffè,,,VR,37017,45.5087744,10.7344566,,,,,,490182861,node
Senza nome,panetteria,,,VR,,45.508874,10.7344092,,,,,,490182863,node
Bar Europa,pub,"Piazza Vittorio Veneto, 13",,VR,37010,45.6064507,10.7267813,,,,,,492062961,node
El Brol,ristorante,"Piazza Vittorio Veneto, 7",,VR,37010,45.6061444,10.7270575,+39 045 6200043,https://www.elbrol.com/,,"Th-Tu 12:00-14:30, 18:30-22:30",regional,492062968,node
Malga Faggioli,ristorante,,,VR,,45.6503358,10.9893763,,,,,regional,493169757,node
Osteria al Duca,ristorante,"Via Arche Scaligere, 2",Verona,VR,37121,45.4434505,10.9993864,+39 045 594474,,,,,494911938,node
Il Giardinetto,ristorante,"Via Don Marcellino Faccio, 6",San Zeno di Montagna,VR,37010,45.631047,10.7226986,,https://ilgiardinetto.eu/,,"We off; Th-Tu 12:00-14:30,18:30-22:30",,495261072,node
Okfood,caffè,,,VR,,45.4161743,11.0855672,,,,,,497557583,node
Pizzeria Il Thempio,ristorante,,,VR,,45.417747,11.0826596,,,,,,497557600,node
Piccola locanda,ristorante,,,VR,,45.4794353,10.8695833,,,,,,503559600,node
Zorba,ristorante,,,VR,,45.4845874,10.8671873,,,,,greek,503559607,node
McDonald's,fast_food,,,VR,,45.5514809,10.788132,,,,"Fr,Sa 07:00-02:00, Su-Th 07:00-01:00",burger,504684725,node
Trattoria al tempio,ristorante,"Via Chioda, 118",Verona,VR,37136,45.4087527,10.9506599,,,,,,505736977,node
Trattoria dalla Mostaciona,ristorante,"Via Chioda, 120",Verona,VR,37136,45.4082767,10.9507372,,,,,,505739563,node
Chiaroscuro Cafè,bar,"Via Ponte, 99",,VR,37026,45.4800041,10.8624555,+39 340 3237278,,,,,506284136,node
Ristorante & Bar Montebaldina,ristorante,Via Lumini,San Zeno di Montagna,VR,,45.6284687,10.7559432,+39 045 7285176,https://www.hotelmontebaldina.it/,info@hotelmontebaldina.it,"Mo-Su 12:00-14:15,19:15-21:30",,506962049,node
Locanda Buglioni,ristorante,"Via Cariano, 24a",San Pietro in Cariano,VR,37029,45.5115365,10.8624192,,https://locandabuglioni.it/,,,italian,516200808,node
Pizzeria Italia,ristorante,,,VR,,45.4720945,10.9746413,,,,,,517251341,node
Casa Rosa,ristorante,,,VR,,45.481675,11.0433858,,,,,,521858974,node
Bacco Re,ristorante,"Via Roma, 36b",,VR,,45.3448189,10.8819136,,,,"Th-Mo 12:00-14:30, 18:30-00:00; Tu-We 12:30-14:30",italian_pizza,586449993,node
Bar Trieste,bar,,,VR,,45.3479273,10.880865,,,,,,586450142,node
Bar Neghelli,bar,,,VR,,45.3439517,10.8832387,,,,,,586450191,node
Archi bistrot & caffè,bar,,Grezzana,VR,37023,45.5191816,11.01623,,,,,,592295501,node
Senza nome,caffè,,,VR,,45.519726,11.0168048,,,,,,592295504,node
Bar Jolly,bar,,,VR,,45.5149748,11.0166117,,,,,,592295538,node
Da Umberto,ristorante,"Via Imbarcadero, 15",,VR,37010,45.687613,10.7497491,+39 045 743 0388,https://www.daumberto.it/,modenaluca@libero.it,Mo-Su 11:30-22:00,regional,596110979,node
Cafe Del Sorrentino,caffè,,,VR,,45.4674646,10.7129914,,,,,sandwich,600181201,node
Sunset Bar,fast_food,Via Porto,,VR,,45.4680206,10.7130523,,,,unknown,,600181205,node
Sifa Bar,caffè,"Via Porto, 16",Pacengo,VR,37010,45.4672846,10.7204841,,,,,,600181213,node
Camporosso,ristorante,,,VR,,45.4686195,10.7418991,,,,,,600181217,node
Alle Querce,ristorante,,,VR,,45.5910891,10.7859067,,,,,,610956960,node
Hotel Ristorante Costabella,ristorante,"Via degli Alpini, 1",San Zeno di Montagna,VR,37010,45.6318412,10.7259107,+39 045 7285046,,,,,667406979,node
Autogrill,ristorante,,,VR,,45.6949206,10.9166936,,,,,italian;regional,668642418,node
Area Servizio Povegliano Est,caffè,,,VR,,45.2971396,10.898121,,,,,,668646377,node
Area Servizio Povegliano Ovest,ristorante,,,VR,,45.2972181,10.8963283,+39 045 7925360,,,,burger,668646378,node
Kappa2,ristorante,,,VR,,45.6369633,10.7319615,,,,,pizza,685601720,node
Gatto Moro,ristorante,"Via Giotto, 21",Borghetto di Valeggio sul Mincio,VR,37067,45.3549362,10.7226658,+39 045 6370570,https://www.hotelfaccioli.it/gatto-moro.php,,,regional,694501507,node
La Vecchia Bottega,ristorante,"Via Michelangelo Buanarroti, 6",Borghetto di Valeggio sul Mincio,VR,37067,45.3536246,10.7237531,+39 045 637 0183,https://www.lavecchiabottegadiborghetto.it/,,,regional,694501641,node
Antica Locanda Mincio,ristorante,"Via Michelangelo Buanarroti, 12",Borghetto di Valeggio sul Mincio,VR,37067,45.3535307,10.7237024,,https://www.anticalocandamincio.it/,,,regional,694501642,node
La Cantina,ristorante,Via Giotto,Borghetto di Valeggio sul Mincio,VR,37067,45.3542748,10.7234627,+39 045 6370605,https://www.hotelfaccioli.it/la-cantina.php,,,regional,694501644,node
Osteria Al Volto,ristorante,"Via Giotto, 1",Borghetto di Valeggio sul Mincio,VR,37067,45.3541754,10.7236541,+39 3486964172,,,,regional,694501645,node
Osteria La Follia,ristorante,,,VR,,45.3545042,10.8465593,,,,,,694537257,node
Bar Pappagallo,bar,Passeggiato Rivalunga,,VR,37011,45.5563979,10.7165247,+39 351 516 7023,,,,,694608220,node
Il BarKino Beach Cafe,bar,Passeggiata Rivalunga,Bardolino (VR),VR,37011,45.5583612,10.7154125,,,,unknown,,694608225,node
Eden Food and Drink,bar,Passeggiata Rivalunga,Bardolino (VR),VR,37011,45.5609644,10.7138739,,,,unknown,,698908391,node
Arca,ristorante,,,VR,,45.5610754,10.718469,,,,,,698908393,node
Bar Campagnari,bar,"Via Lumini, 23",San Zeno di Montagna,VR,,45.6279675,10.7549114,,,,,,702234309,node
Corte Dal Castello,ristorante,Via Croce,Colà,VR,37017,45.4713218,10.7423273,,,,,regional;italian;cake;salad;dessert;seafood;pasta,703365154,node
Senza nome,panetteria,,,VR,,45.4717481,10.7425251,,,,,,703365158,node
Trattoria Dal Pansa,pub,,,VR,,45.4736234,10.7432701,,,,,,703365266,node
Gino's Bar,pub,,,VR,,45.4742464,10.7424227,,,,"Th-Tu 08:00-14:00,18:00-02:00",,703365269,node
Baretto,pub,,,VR,,45.4723188,10.749485,,,,"Tu-Su 09:00-14:00,17:30-02:00",,703365334,node
Pizzeria Fantasia,ristorante,,,VR,,45.4722907,10.7482904,,,,,,703365346,node
La Bottega del Pane,panetteria,,,VR,,45.4599991,10.7836335,,,,"Mo-Fr 07:30-12:45, Mo-Sa 16:00-19:00, Sa,Su 07:30-12:45",,703787314,node
Splatter,caffè,,,VR,,45.4604892,10.7855957,,,,"Tu-Su 07:00-13:00,16:30-21:00; Mo 07:00-13:30",,703787332,node
Martini,caffè,,,VR,,45.4416851,10.7635628,,,,"Mo-Sa 07:30-12:30,15:30-19:45; Su 07:30-12:30",,707443470,node
Pizzeria Ai Testi,ristorante,,,VR,,45.4413033,10.7585392,,,,,pizza,707443618,node
La Locanda delle Fornase,ristorante,"Via Derna, 5",Castelnuovo del Garda,VR,37014,45.4443915,10.7236043,,,,,regional,721165658,node
Le 2 Spighe,panetteria,,,VR,,45.4733241,10.8505239,,,,,,724299611,node
Life,caffè,,,VR,,45.4735386,10.8504283,,,,,,724299619,node
Mada Cafè,caffè,,,VR,,45.4389921,10.9908952,,,,,,724316612,node
La Cometa Azzurra,ristorante,,,VR,,45.4439771,10.7034679,,,,,pizza;italian,728700410,node
Bar Posta,caffè,,,VR,,45.4412261,10.701437,,,,,,728700466,node
Rock & Roll Restaurant,ristorante,,,VR,,45.4788906,10.7278581,+39 045 69 69 701,,,"Apr-Nov Sa,Su,PH,PH -1 day 18:30-00:00",burger;pizza;italian;chicken,746669382,node
Senza nome,ristorante,,,VR,,45.4801365,10.7208185,,,,,,746669996,node
Ristorante Bar Senzanome,ristorante,"Piazzale Porto, 1",Pacengo di Lazise,VR,37010,45.467906,10.7132362,,,,,italian,746673071,node
La Forgia,ristorante,,Lazise,VR,37017,45.5056689,10.7314975,,,,,,746684859,node
Girasole,ristorante,,,VR,,45.4989475,10.7453093,,,,,regional,760500370,node
Beach 03 Ristobar,bar,Passeggiata Rivalunga,Bardolino (VR),VR,37011,45.559424,10.7148197,,,,unknown,,764404347,node
Hostaria Favellina,ristorante,,,VR,,45.6231881,11.3971851,,,,,,806526648,node
Monti Lessini,ristorante,,,VR,,45.6942819,10.9755218,+39 0464 671253,,,,regional,811268615,node
Taverna Max,bar,,,VR,,45.6060963,10.7267513,,,,,,814932558,node
Locanda San Verolo,bar,"Localita' San Verolo, 1",Costermano,VR,37010,45.6031794,10.7374497,,https://www.sanverolo.it/,,,,817685893,node
Caffè Nuovo,bar,,,VR,,45.6061232,10.7953283,,,,,,817723788,node
Bar all'Angolo,caffè,,,VR,37013,45.606536,10.7954587,,,,,,817724811,node
Millenium,bar,,,VR,,45.5876132,10.74619,,,,,,817756416,node
Hotel Pinamonte,ristorante,,,VR,,45.5869482,10.7429176,,,,,,817761311,node
Senza nome,bar,,,VR,,45.5879119,10.742634,,,,,,817762534,node
Trattoria Miralago,ristorante,,,VR,,45.58487,10.7309076,,,,,,817766187,node
La Cross,ristorante,"Via della Pace, 4",Garda,VR,37016,45.5794989,10.7200664,,,,,italian,817770159,node
Morsi&Sorsi,ristorante,,,VR,,45.5023866,10.7358107,,,,,,824350623,node
Speck Stube,ristorante,"Via Croce, 1",Bardolino,VR,37011,45.5476496,10.7244678,+39456210918,https://www.speckstube.eu/,,"Mo-Su 12:00-14:30,18:00-22:30",steak_house;pizza,824404227,node
Senza nome,ristorante,,,VR,,45.5526488,10.7219643,,,,,,824413777,node
Ristorante Tregnago,ristorante,"Via Campitelli, 1",Montecchia di Crosara,VR,37030,45.4641286,11.2832588,,https://www.ristorantetregnago1908.com,,,italian,825932994,node
Mandolara,ristorante,,,VR,,45.5731594,10.7105299,,,,,,831350758,node
La Virata,ristorante,"Via Fosse, 40",Bardolino,VR,37011,45.5475629,10.7223153,,,,"Mo-Su 12:00-14:30, 17:30-23:00",,835467832,node
Mimosa,bar,,,VR,37011,45.5482232,10.7182944,,,,,,835470106,node
Asso Bar,pub,,,VR,37011,45.5469912,10.7218515,,,,,,835591385,node
Bar Alle Mura,bar,,,VR,37011,45.5481655,10.7201477,,,,,,835649797,node
Trattoria Relax,ristorante,,,VR,,45.606132,10.7301934,,,,,,843308173,node
Paella valenciana style,ristorante,"Via Valpantena, 106",Verona,VR,37142,45.4967304,11.0188439,+39 329 4234141,www.latrattoriaitaliana.com,info@latrattoriaitaliana.com,,spanish,847557856,node
Pizzeria Bar da Leo,ristorante,"Via Valpantena, 62",Verona,VR,,45.5000583,11.0174564,+39 045 550361,,,Tu-Sa 06:30-22:00; Mo 06:30-15:30; Su off,,847558144,node
Brenzan,panetteria,"Via Fusina, 23",Grezzana,VR,37023,45.5131789,11.0164305,+39 045 907076,,,,,848278497,node
Putapariò,ristorante,,,VR,,45.5032302,11.0172037,,,,,pizza,848278499,node
Olmo,pub,,,VR,,45.5184726,11.0172127,,,,,,848296119,node
Bar Paninoteca Dal Colle,caffè,,,VR,,45.4428956,11.0202737,,,,,,850731530,node
S. Carlo,bar,,,VR,,45.5141638,11.0172783,,,,,,858468213,node
Biri Ristorante,ristorante,,,VR,37011,45.5472745,10.7215629,,,,,,866078807,node
Ristorante Pizzeria Al Frantoio,ristorante,,,VR,,45.6033842,10.7648427,,,,,,871874545,node
Lido,ristorante,,,VR,37017,45.5007847,10.7332818,,,,,,878787798,node
Al Vecchio Vinile,ristorante,,,VR,,45.6762886,11.3282842,,,,,,885449314,node
Bar Lido,bar,,,VR,,45.5775379,10.7019897,,,,,,885855603,node
Movie,bar,,,VR,,45.4837471,10.8693263,,,,,,889156269,node
Mixup,bar,,,VR,,45.4838411,10.8695408,,,,,,889156314,node
feel in,caffè,,,VR,,45.4838476,10.8693665,,,,,,889156414,node
Waikiki,bar,,,VR,,45.5337951,10.7268827,,,,,,890153350,node
Fortuna,ristorante,,,VR,,45.5704297,10.7592029,,,,,,890682141,node
Patasciù,fast_food,,,VR,,45.4966767,10.8697625,+39 045 715 0087,,,,pizza,891692125,node
Cà Morel,ristorante,"Via Ca´Morel, 1",Costermano sul Garda,VR,37010,45.591873,10.7139592,+39 45 6279046,https://www.camorel.it,,,italian,895451906,node
Senza nome,bar,,,VR,,45.5523596,10.7801933,,,,,,899483138,node
Senza nome,bar,,,VR,,45.5425248,10.7758166,,,,,,899492800,node
Al Cardellino,ristorante,,,VR,,45.5254138,10.7319622,,,,Th-Su 19:00-22:30; Su 12:00-14:30,regional,901780547,node
Al Germano Reale,ristorante,"Via Peschiera, 10",Cisano,VR,37010,45.5297203,10.7264127,+39 45 7210452,http://www.algermanoreale.com/,,,regional,901780573,node
Due Alfieri,ristorante,,,VR,,45.5295572,10.7261198,,,,,regional,901780578,node
Yacht Bar,bar,"Lungolago Francesco Lenotti, 4",Bardolino,VR,37011,45.5468441,10.7196013,,,,,,915486592,node
Bar Pizzeria First Meeting,ristorante,,,VR,,45.5779483,10.7129032,,,,,,922471153,node
Pizzeria Milano,ristorante,,,VR,,45.577538,10.712243,,,,,pizza,922473889,node
Bar Pizzeria,fast_food,,,VR,,45.5752538,10.7207122,,,,,,924200162,node
Pizzeria,fast_food,,,VR,,45.5761165,10.7130109,,,,,,924221783,node
Senza nome,bar,,,VR,,45.2904952,11.1819883,,,,,,945430714,node
Senza nome,bar,,,VR,,45.2896486,11.1810462,,,,,,945430741,node
Osteria da Montresor,ristorante,"Via Bionde, 128",Verona,VR,37139,45.458739,10.9392662,,,,,,966332193,node
Taverna Kus,ristorante,"CONTRADA CASTELLO, 14",San Zeno di Montagna,VR,37010,45.6426345,10.7351044,+39 045 7285667,https://www.ristoranteveronatavernakus.it/,tavernakus@libero.it,"Tu-Su 12:00-14:00,19:00-22:00",regional,972026700,node
Corte Poli,ristorante,,,VR,,45.3885941,11.1136127,,,,,,1018379415,node
Pino 2,ristorante,,,VR,,45.577296,10.7288085,,,,,italian,1039959087,node
Riviera Cassan,bar,"Via Guglielmo Marconi, 89",San Giovanni Lupatoto,VR,,45.3761555,11.0561324,,,,,,1071749507,node
Ristorante Pizzeria Italia,ristorante,,,VR,,45.2407633,10.8016059,,,,,regional,1080373215,node
Shisha bar,bar,,,VR,,45.5080453,10.7326803,,,,,,1080680751,node
"Agriturismo ""La Zerpa""",ristorante,,,VR,,45.3549051,11.2514805,,,,,italian,1083518375,node
Pizzeria Ristorante MaryGiò,ristorante,"Via Giovanni Pascoli, 42j",Affi,VR,,45.5522237,10.7891119,,,,,pizza,1096510864,node
Ai Pigni de Cerù,ristorante,,,VR,,45.5424464,10.8816995,+39 045 6839021,https://www.ristoranteaipignideceru.com/,info@ristoranteaipignideceru.com,,italian,1148186572,node
Pizzabufalina,ristorante,"Via dell'Artigianato, 11",Valgatara,VR,,45.5237553,10.9071803,+39 045 6801164,,,,pizza,1178827985,node
Pepperone,ristorante,"Via Federico Garofoli, 315",San Giovanni Lupatoto,VR,37057,45.3992242,11.0202754,+39 045 8775455,https://www.pepperone.com/,pepperonevr@libero.it,,,1211247755,node
Mexì,ristorante,"Via Staffali, 20",Dossobuono,VR,37062,45.3882096,10.9059931,,,,,mexican,1216818872,node
Pizzeria 70,ristorante,,,VR,,45.4490953,11.0202086,,,,,pizza,1226447850,node
Osteria La Cantineta,pub,,,VR,,45.4492722,11.0201657,,,,,,1226481132,node
Pub Marogna,pub,,,VR,,45.6280218,10.9516845,,,,,,1228364342,node
Breonio,ristorante,,,VR,,45.6230471,10.9042709,,,,,,1228364355,node
Trattoria Du Scalini,ristorante,,,VR,,45.6123673,10.9118152,,,,,,1228364358,node
Pizzeria da Icio,ristorante,"Via Cesare Battisti, 2",Sant'Anna D'Alfaedo,VR,,45.642171,10.9375233,,,,,pizza,1228364427,node
Pensione Ombra,ristorante,"Via Cesare Battisti, 156",Fosse,VR,37020,45.6462998,10.9372755,+39 045 7519109,https://www.hotelombra.com/contatti.html,,,,1228364436,node
Blu Trend,pub,,,VR,,45.644413,10.936798,,,,,,1228364446,node
Senza nome,pub,,,VR,,45.6434499,10.9362157,,,,,,1228364449,node
Trattoria Chesini,ristorante,"via ca gottolo, 12",Fumane,VR,37022,45.5896637,10.9070101,+390457701867,,,,regional,1231557542,node
The Loft 37,ristorante,"Via Nazionale, 37",San Martino Buon Albergo,VR,37036,45.4220451,11.1045023,+39 045 990099,https://www.theloft37.it/,info@theloft37.it,,pizza,1237021111,node
Panificio Artigiano,panetteria,,,VR,,45.4235128,11.1152824,,,,,,1237295856,node
Senza nome,bar,,,VR,,45.4240437,11.1035342,,,,,,1241683063,node
Senza nome,bar,,,VR,,45.423992,11.1052156,,,,,,1241683067,node
Urban Style Cafè,caffè,,,VR,,45.4227902,11.0922335,,,,,,1244331517,node
Caffè Peretti,bar,,,VR,,45.422571,11.0927458,,,,,,1244331550,node
Senza nome,bar,,,VR,,45.4225186,11.0923491,,,,,,1244331583,node
Pane Bellesini,panetteria,"Piazza del Popolo, 39",,VR,37036,45.4224217,11.0926992,,,,,,1244378846,node
Sapore',fast_food,,,VR,,45.4230136,11.0959598,,,,,,1245589445,node
Saporè,ristorante,,,VR,37036,45.4230117,11.0960778,,,,,,1245589447,node
Da Gigi,ristorante,,,VR,,45.5154141,10.9470887,,,,,italian;pizza,1248136921,node
Senza nome,bar,,,VR,,45.419984,11.0906113,,,,,,1252138198,node
Bar da Gino,bar,,,VR,,45.4249388,11.0838779,,,,,,1252138199,node
Senza nome,bar,,,VR,,45.4189109,11.092623,,,,,,1252138200,node
Bar Erman,bar,"Via Giuseppe Mazzini, 92",Quaderni,VR,37069,45.3298473,10.7896457,,,,,,1261292979,node
Bar Puravida,bar,"Via Mazzini, 188",Quaderni,VR,37069,45.3302979,10.7881138,,,,,,1261300106,node
La Rustega,ristorante,,,VR,,45.3719625,10.7821956,,,,,regional,1262130449,node
Senza nome,ristorante,,,VR,,45.3683296,10.7611017,,,,,regional,1262130470,node
Bar Civico 10,bar,"Piazza Martiri della Libertà, 10",Lugagnano,VR,37060,45.4335781,10.8899475,,,,,,1268916136,node
Hollywood Bar,pub,,,VR,,45.3078247,11.3861861,,,,,,1270988211,node
Il Ristocafè,ristorante,,,VR,,45.3789548,11.2846206,,,,,,1270988445,node
Burger King,fast_food,"Via Tangenziale Esterna, 3",Peschiera,VR,37019,45.4336397,10.7103507,,,,,burger,1273711644,node
Senza nome,panetteria,,,VR,,45.5691707,10.8724819,,,,,,1278718712,node
"Ristorante Pizzeria ""Siena""",ristorante,,,VR,,45.3485336,10.835735,,,,,italian,1291748373,node
"Pasticceria ""Roveda""",caffè,,,VR,,45.3493587,10.8372517,,,,,,1291748379,node
Bar centrale,caffè,,,VR,,45.4092148,11.19476,,,,,,1304585860,node
Trattoria Rosa,ristorante,,,VR,,45.487526,10.8952,,,,,italian,1308897475,node
Victory,bar,"Via Sardegna, 1d",Verona,VR,37139,45.4380411,10.9475321,+39 045 4683812,https://www.victorycaffe.it/,victory@hotmail.it,,,1317459123,node
NaturaSi,ristorante,,,VR,,45.4455859,10.9394196,+39 045 8905576,https://www.ristorantenaturasi.it/,info@ristorantenaturasi.it,,italian,1317968149,node
Bar San Rocco,bar,,,VR,,45.5250297,11.3276684,,,,,,1321625499,node
Pizzeria Al Vento,ristorante,"Via Sardegna, 1",,VR,,45.4385512,10.9472753,,,,,pizza,1321786120,node
Bar Pizzeria Ethiopia,ristorante,,,VR,,45.5326576,11.3596919,,,,,,1323869335,node
Lo stappo - Wine food,bar,"Via Raffaello Sanzio, 18b",Borghetto di Valeggio sul Mincio,VR,37067,45.3538831,10.7245457,+39 045 795 1279,http://www.lostappo.com/#_=_,,,,1341791154,node
Ristorante al Braciere,ristorante,,,VR,,45.3046545,11.0565212,,,,,pizza,1355477496,node
Kirin (sushi resturant),ristorante,,,VR,,45.4453183,10.8432921,,,,,,1355487325,node
Il caminetto,bar,,,VR,,45.6853969,11.086242,,,,,,1357433706,node
Ristorante tipico La Dacia,ristorante,,,VR,,45.5711203,10.7385546,,,,,italian,1379768240,node
Tinelli,panetteria,,,VR,,45.575567,10.7074778,,,,,,1379848158,node
Perbacco,ristorante,"Via Giosuè Carducci, 48a",Verona,VR,37129,45.4422573,11.0064759,+39 045 594193,http://www.trattoriaperbacco.com,,"Mo,Tu,Th-Sa 12:30-14:00,19:30-22:00",,1380926643,node
Manas Fast Food,fast_food,,,VR,,45.4815139,10.8002712,,,,,,1382000193,node
Alla Sorte,bar,,,VR,,45.468981,10.9428285,,,,,,1389186899,node
Trattoria Alla Sorte,ristorante,,,VR,,45.46886,10.9425062,+39 045 8102456,http://www.trattoriaallasorte.it/,info@trattoriaallasorte.it,,italian,1389186900,node
La Spiga D'Oro,panetteria,"Via Urbano terzo, 10",Verona,VR,37139,45.4412485,10.9411029,+39 045 8903740,,,Mo-Sa 06:00-13:00,,1397381294,node
Trattoria Caprini,ristorante,,,VR,,45.5606062,10.9418261,,,,,italian,1401987762,node
pizza fantasy,fast_food,,,VR,,45.4191104,11.1368216,,,,,,1415914712,node
Pizzeria Trattoria Marconi,ristorante,"Piazza Guglielmo Marconi, 25",Zevio,VR,37059,45.3720409,11.1335431,,,,,,1415914740,node
Antica Trattoria Busolo,ristorante,,,VR,,45.4075528,11.128661,,,,,,1415914755,node
Ca' Brusà,ristorante,,,VR,,45.4198936,11.1263396,,,,,,1415914762,node
L'altro Carlo re,ristorante,,,VR,,45.3726692,11.1222415,,,,,pizza,1415914782,node
Il Girasole,ristorante,,,VR,,45.3712833,11.1075355,,,,,,1415914788,node
Al Vaghetto,ristorante,,,VR,,45.4170379,11.1332607,,,,,,1415914797,node
trattoria al bon goto,ristorante,,,VR,,45.3879777,11.1156362,,,,,,1415914850,node
Ginevra,ristorante,,,VR,,45.4519183,11.1203314,,,,,,1415939335,node
come nà olta,ristorante,,,VR,,45.4428182,11.1278738,,,,,,1415939397,node
Trattoria Grobberio,ristorante,,,VR,,45.4648396,11.104442,,,,,,1415958042,node
vecchia fontana,ristorante,,,VR,,45.4630946,11.1047843,,,,,,1415958082,node
Agriturismo Viticcio dei Ronchi,ristorante,,,VR,,45.4866041,11.0811406,,,,,,1415963445,node
Osteria dal pipa,ristorante,,,VR,,45.4654596,11.066721,,,,,,1416634615,node
Villa De Winckels,ristorante,"Via Sorio, 30",Tregnago,VR,37039,45.5208715,11.1530544,+39 045 6500133,https://www.villadewinckels.it/,,,,1416684827,node
Bar Pizzeria Posta,ristorante,"Piazza Sant'Egidio, 28",Tregnago,VR,37039,45.5143255,11.1655024,+39 045 780 8465,,,,pizza,1416685016,node
il giardino,ristorante,,,VR,,45.3793374,11.0498635,,,,,,1417165886,node
el capel,ristorante,,,VR,,45.3768956,11.0482756,,,,,,1417165899,node
Pizza Country,ristorante,,,VR,,45.3785372,11.3885019,,,,,pizza,1417460040,node
al leon d'oro,ristorante,,,VR,,45.3867138,11.3864278,,,,,,1417460118,node
La Tonda,ristorante,"Via Brennero, 10",Pescantina,VR,,45.493884,10.8780745,+39 045 6700813,https://www.ristoasi.com/,,,pizza,1418801547,node
Bar Fortuna,bar,,,VR,,45.5061166,10.8420217,,,,,,1424651659,node
Pizzeria San Mattia,ristorante,"Viale dei Colli, 43",,VR,37128,45.4631534,10.9947142,+390452456625,https://www.sanmattia.eu/,info@sanmattia.eu,"Mo-Fr 12:00-14:30, 19:00-23:30; Sa-Su 12:00-15:00, 18:30-00:00",pizza,1425921488,node
Locanda San Leonardo,ristorante,"Viale dei Colli, 31",Verona,VR,37128,45.4589783,10.9953088,+39 045 8342524; +39 345 6977059,,mariolupariello@gmail.com,,fish,1425961028,node
Senza nome,bar,,,VR,,45.6582109,11.1818515,,,,,,1426822007,node
Ai due forni,ristorante,"Via Po, 49-51",Arzignano,VR,,45.5211269,11.3156829,+39 0444 453819,,,,seafood;italian;mediterranean;pizza,1429132408,node
Cavalla,bar,,,VR,,45.5684818,10.7086441,,,,,,1430323240,node
Trattoria Biondani,ristorante,,,VR,,45.4731228,10.8853885,,,,,,1432313373,node
Bar Caffetteria Al Duomo,caffè,"Piazza Duomo, 4a",,VR,,45.4467417,10.9965596,,,,,,1432395061,node
Il Drago,bar,,,VR,,45.4222634,11.2487517,,,,,,1435415168,node
Bar Centrale Poiano,bar,,,VR,,45.4716336,11.0155972,,,,,,1437468835,node
Le Caldane,ristorante,,,VR,,45.4798357,10.7479169,,,,,,1437479160,node
Concept Store Dimmidisi,fast_food,,,VR,,45.4024399,10.9067354,,,,,,1444891926,node
Corte San Giovanni,ristorante,,,VR,,45.5478319,10.7192936,,,,,italian,1448165846,node
Miralago,caffè,"Lungolago Francesco Lenotti, 10",Bardolino,VR,,45.5475554,10.7189385,,,,,ice_cream,1448165853,node
Osteria Scalin,ristorante,"Via San Vitale, 6a",Verona,VR,37129,45.4394324,11.0041704,+39 045 2376356,https://www.osteriascalin.it/,osteria@scalin.it,,,1452373305,node
Ristorante San Martino,ristorante,"Via San Martino, 8",,VR,37011,45.5469079,10.7208176,,https://www.ristorantesanmartino.com/,,"Mo-Su,PH 12:00-23:00",italian,1460551457,node
Chiosco dei Mulini,bar,,,VR,,45.3111345,10.7018448,,http://www.chioscodeimulini.it,,Mar-Oct 08:00-22:00,,1470659836,node
Senza nome,ristorante,,,VR,,45.2603203,11.263637,,,,,,1471924024,node
Stadio Fast Food,fast_food,,,VR,,45.4348895,10.9704048,,,,,kebab,1472094025,node
Testi,panetteria,,,VR,,45.4492811,10.9641064,,,,,,1472900931,node
Ristorante al Parolo,ristorante,"Viale Nogarole, 73",,VR,37037,45.3922233,11.2937016,+39 045 7610287,https://www.ristorantealparolo.com/,,,italian,1477783257,node
Pub 900,pub,,,VR,,45.5219799,10.8327686,,,,,,1478005862,node
Caffè Centrale,bar,,,VR,,45.3583552,11.2850171,,,,,,1484673100,node
Pasticceria Borsaro,caffè,,,VR,,45.4404749,11.0207297,+39 045520207,,,,pastry,1484875909,node
Bar Centrale,caffè,"Piazza Risorgimento, 7",Bardolino,VR,37011,45.5216486,10.7525271,,,,,,1485789624,node
Dream Café,caffè,"Via G. Fracastoro, 52",Cavaion Veronese,VR,,45.5382878,10.770084,+39 045 6261020,,,,,1485789639,node
Piccolo Doge,ristorante,"Via Santa Cristina, 48",Bardolino,VR,37011,45.5364377,10.7270849,+39 045 6212393,https://www.ristorantepiccolodoge.com/,,,regional,1485875859,node
Osteria Mattarana pizzeria,ristorante,"Via Mattarana, 38",Verona,VR,37132,45.4405162,11.0595826,+390458920547,http://www.osteriamattarana.it/,,Mo-Su 12:00-15:00; Mo-Su 18:30-00:30; Mo 12:00-15:00,italian,1485988456,node
Bar Barana,bar,,,VR,,45.4401527,11.0158278,,,,,,1488474668,node
Eleven Cafè,bar,,,VR,,45.4405776,11.0213946,,,,,,1489450698,node
Marconi 3,bar,"Via Vigp, 1/3",,VR,37010,45.5696965,10.8125752,,,,,,1490409301,node
Bar Iris,fast_food,,,VR,,45.3590086,10.7346552,,,,,,1490504563,node
Bar della fattoria,caffè,,,VR,,45.3618017,10.7295282,,,,,,1490504841,node
Bar Bosco,fast_food,,,VR,,45.3627706,10.7351878,,,,,,1490504900,node
Pima's Bar,bar,,,VR,,45.4399665,11.0306665,,,,,,1491447352,node
Roxy Bar,bar,,,VR,,45.4399251,11.0272649,,,,,,1491447355,node
Senza nome,bar,,,VR,,45.5512788,11.0868533,,,,,,1493306207,node
Pasticceria Effedue,caffè,,,VR,,45.4313659,11.0491839,,,,,,1495299006,node
Finger Sushi,ristorante,,,VR,,45.4340262,11.0421013,,,,,sushi;chinese,1495299007,node
Trattoria alla Cacciatora,ristorante,,,VR,,45.5932695,11.2596403,,,,,,1495470571,node
Alle due Colonne,ristorante,,,VR,,45.6148497,11.2507867,,,,,,1495482531,node
Senza nome,bar,,,VR,,45.6148255,11.2507179,,,,,,1495482532,node
Pizzeria,ristorante,,,VR,,45.591027,11.2513593,,,,,,1495494730,node
Bar Zeus,bar,,,VR,,45.4396054,11.0322355,,,,,,1495565545,node
Pizzeria Carlo Re,ristorante,,,VR,,45.4395996,11.0285328,,,,,pizza,1495565582,node
Bar Blue Moon,bar,,,VR,,45.4410693,11.0211187,,,,,,1497275225,node
Dolce e Salato,bar,,,VR,,45.4407791,11.0192385,,,,,,1497275229,node
Pronto Pizza,fast_food,,,VR,,45.4397399,11.0266011,,,,,italian,1503098847,node
Non solo pane,panetteria,,,VR,,45.4344019,11.0420323,,,,,,1504021200,node
Mondo Pizza,fast_food,"Via Primo Maggio, 33",,VR,37010,45.5888302,10.7450669,+39 348 5943842,,,,pizza,1504328947,node
Alla Vecchia Osteria,bar,"Piazza Betteloni, 18",Bardolino,VR,37011,45.5478885,10.7206666,,,,,,1504359702,node
Garden Caffè,bar,,,VR,,45.442953,11.0232589,,,,,,1505467368,node
Panificio Artigianale,panetteria,,,VR,,45.4413228,11.0233774,,,,,,1505468318,node
Pasticceria Rossini,caffè,,,VR,,45.4420487,11.0202481,,,,,pastry,1505468442,node
Rosticceria Aji,fast_food,"Piazza Isotta Nogarola, 4",,VR,37131,45.4407743,11.0210218,,,,,chinese,1505468473,node
Senza nome,bar,,,VR,,45.4394226,11.0345951,,,,,,1506457422,node
Senza nome,fast_food,,,VR,,45.439438,11.0344285,,,,,kebab,1506457460,node
Panificio Fiorio,panetteria,,,VR,,45.4392053,11.0346065,,,,,,1506457978,node
Pasticceria Battini,caffè,,,VR,,45.4371031,11.0335736,,,,,,1506457984,node
Pizzeria Notte e Dì,ristorante,,,VR,,45.440671,11.0348532,,,,,pizza,1506457990,node
La Patata,pub,,Bussolengo,VR,,45.4439416,10.8663389,,,,,barbecue;steak_house;burger;chicken,1506870491,node
Bar Bomba dalla Bionda,bar,,,VR,,45.4448021,11.0457879,,,,,,1507465132,node
Glam,bar,"Via Antonio da Legnago, 1c",Verona,VR,37141,45.4523503,11.0525789,,,,,,1507465137,node
Bar dal Picia,bar,,,VR,,45.435314,11.0250399,,,,,,1508498902,node
Lomitos Argentinos Verona,ristorante,,,VR,,45.4438999,11.0208869,+390455865121,https://www.lomitosargentinos.com/,,Tu-Su 19:00-22:30,argentinian,1508654394,node
Pizzeria al taglio da Giorgio,fast_food,,,VR,,45.4442506,11.0185923,,,,,pizza,1511628726,node
Mondo Pizza Pazzon,fast_food,Piazza Don Roncari,,VR,37013,45.618738,10.8250322,+39 331 242 4390,,,,pizza,1515215054,node
Pizzeria Congo,ristorante,,,VR,,45.3152888,11.2742821,,,,,pizza,1519319972,node
Trattoria al Metano da Anna,ristorante,"Via Bartolomeo Avesani, 7",Verona,VR,,45.4264111,10.9936856,+39 045 595199,https://it-it.facebook.com/pages/Trattoria-al-Metano-Da-Anna/314258748604147,,,fish;italian,1521729309,node
Civico 2 Tripoli,ristorante,"Via Spagna, 2",Verona,VR,37123,45.4440124,10.9792615,+39 348 516 3616,http://www.acquaegrano.it/ita/home.html,,,pizza,1522026294,node
"Agriturismo ""Al Bosco""",ristorante,"Località Bosco, 2",,VR,37030,45.4397178,11.1968611,,https://www.agriturismoverona.it/agriturismo/al_bosco.aspx,,,italian,1533300605,node
Boscaini,panetteria,,,VR,,45.4560881,10.9827104,+39 347 9655633,,,"Mo-Sa 07:00-13:00, 16:30-19:30",,1533784478,node
Bar all'Angolo,bar,,,VR,,45.3820838,11.2092837,,,,,,1536463231,node
Bar Renza,caffè,,,VR,,45.4600421,10.9779956,,,,,,1545587691,node
La Barchetta,pub,,,VR,,45.4555323,10.7004309,,,,Mo-Su 09:00-22:30,,1552162814,node
Al Rustico,ristorante,,Lazise,VR,37017,45.5066653,10.7317369,,,,,,1552308308,node
Lacisium,caffè,"Via Francesco Fontana, 24",Lazise,VR,37017,45.5053654,10.7316651,+39 3465855321,,,,,1552308356,node
Corte Olivo,ristorante,"Corso Cangrande, 22",Lazise,VR,37017,45.506906,10.7335223,,,,,italian,1552308382,node
CortéS,pub,"Via Francesco Feliciano Scolari, 18",Lazise,VR,37017,45.5059828,10.733473,,www.bartour.it,,,,1552308391,node
Gipi's,caffè,,Lazise,VR,37017,45.5053627,10.7319234,,,,,,1552308396,node
Locanda alla Chiesa,ristorante,,Lazise,VR,37017,45.5058065,10.7335909,,https://www.locandaallachiesa.com/,info@locandaallachiesa.com,,,1552308430,node
Taverna da Oreste,ristorante,"Via Francesco Fontana, 32",Lazise,VR,37017,45.5053642,10.7314895,,https://www.tavernaoreste.it/,,,,1552308471,node
Locanda Bordin,ristorante,,,VR,,45.4737755,10.9033569,,,,,italian,1553588682,node
Catullo,caffè,,,VR,,45.5762436,10.7057573,,,,,,1554282016,node
Papillon,pub,"Via Antiche Mura, 22",Garda,VR,37016,45.5762624,10.706707,,,,,,1554282037,node
Piccolo Bar,caffè,"Via Antiche Mura, 4",Garda,VR,37016,45.5760635,10.7058453,,,,,,1554282038,node
La Golosa,caffè,"Via del Donatore, 18",Affi,VR,37010,45.5544908,10.7779865,+39 045 7236618,,,,,1557353643,node
Trattoria Moscal,ristorante,,,VR,,45.5525175,10.7718065,,,,,,1557378354,node
Senza nome,pub,,,VR,,45.4806374,10.8429506,,,,,,1583907729,node
Senza nome,bar,,,VR,,45.6054526,10.794404,,,,,,1600906380,node
Al Torcolo,ristorante,,,VR,,45.5275814,10.7642924,,,,,pizza,1601041126,node
Il Caminetto,ristorante,,,VR,,45.5219349,10.7529617,,,,,italian,1601041134,node
La Taverna del Borgo,ristorante,"Via Stazione, 5",,VR,37011,45.5221965,10.7520809,+39 045 7236769,https://www.tavernadelborgo.net/,info@tavernadelborgo.net,"We-Mo 12:00-14:00, 18:30-22:30",italian;regional,1601041150,node
Pizzeria Da Salvatore,ristorante,,,VR,,45.4428412,11.0023909,,https://www.pizzeriadasalvatorevr.com/,,"Tu-Sa 12:30-14:30, 19:00-23:00; Su 19:00-23:00",pizza,1603321722,node
Agriturismo mecenero,ristorante,,,VR,,45.4878582,11.3094514,,,,,italian,1603583506,node
Trattoria Fattori,ristorante,,,VR,,45.4645535,11.3195949,,,,,italian,1604754240,node
Jack the Ripper,pub,,,VR,,45.4771762,11.28869,,,,,,1606127582,node
Agrtirusimo Nido D'aquila,ristorante,,,VR,,45.4853983,11.3244921,,,,,,1606130264,node
Bar-Trattoria Ciclamino,ristorante,,,VR,,45.5098112,11.2827444,,,,,,1606164891,node
Vittorio Emanuele,ristorante,"Piazza Bra, 16",,VR,,45.4392547,10.9923015,,,,,,1606833431,node
Trattoria La Val,ristorante,"Via Val dei Mulini, 1a",,VR,,45.5895349,10.7308944,+39 045 6201079,,,,regional,1622226314,node
L'amalfitana,ristorante,"Viale Cristoforo Colombo, 93",Verona,VR,37138,45.4480568,10.9740809,,,,,pizza;kebab,1631046351,node
Poseidon,ristorante,,,VR,,45.4727169,10.8468687,,,,,,1633084872,node
La Vecchia Lira,ristorante,"Via Calabria, 7d",Verona,VR,37139,45.4381007,10.9485888,+39 045 8901188,,,,pizza,1636361256,node
Pizzeria Mundial,ristorante,"Via Gian Lorenzo Bernini, 2",,VR,37045,45.2000901,11.2948393,,sempreunpassoavanti.it,,,italian,1640455384,node
Bar Piazza Chievo,caffè,"Piazza Chievo, 3",Verona,VR,37139,45.4573588,10.9465729,,,,"Su 07:00-13:30,16:30-20:00; Sa 07:00-22:00; Mo-Fr 06:30-22:00",,1650194625,node
Bar La Pantalona,caffè,"Via Aeroporto Angelo Berardi, 82",Verona,VR,37139,45.458039,10.9473669,,,,Mo-Fr 07:00-19:00; Sa 07:00-12:30,,1650194632,node
Cantina Battisti S.n.c.,ristorante,"Via Niccolò Copernico, 18",Lavagno,VR,37030,45.4194948,11.1352334,+39 045 6152230,http://www.ristorantebattisti.it/,,,regional,1655105839,node
Blue Moon,bar,,,VR,,45.4196176,11.1277568,,,,,,1655174055,node
Genzianella,ristorante,,,VR,,45.6870819,11.0858748,,,,,,1655350973,node
Tiratardi,bar,"Via Sebastiano dal Vino, 4",Verona,VR,37133,45.4333759,11.009377,,,,,,1656277037,node
Al Regio Patio,ristorante,"Via San Francesco d'Assisi, 23",,VR,37016,45.573861,10.7087332,,www.regiopatio.it,,,italian,1660729032,node
I Dolci della Regina,panetteria,"Via Venti Settembre, 22",,VR,37016,45.5740675,10.7093072,,,,,,1660733175,node
Senza nome,bar,,,VR,,45.4732007,10.8878891,,,,,,1663455644,node
Da Gianni,ristorante,,,VR,,45.4821821,10.9110851,,,,,,1663455677,node
Osteria Castrum,bar,,,VR,,45.4976356,10.9024326,,,,,,1663455680,node
Settimo Cielo,ristorante,,,VR,,45.480536,10.9034194,,,,,pizza,1663470042,node
Pizzeria Catullo,ristorante,"Lungolago Regina Adelaide, 45",Garda,VR,37016,45.5761699,10.7055906,,,,,,1673794328,node
Bar La Losa,bar,,,VR,,45.5748008,10.7070879,,,,,,1673794355,node
Ristorante La Losa,ristorante,,,VR,,45.5748212,10.7072972,,,,,,1673794361,node
Caffe' Roma,caffè,,,VR,,45.5749728,10.706881,,,,,,1673794365,node
Ristorante Il Giardinetto,ristorante,,,VR,,45.5752045,10.7065549,,,,,,1673794371,node
Taverna El Busetto,ristorante,,,VR,,45.5754306,10.7062603,,,,,,1673794379,node
Ristorante ai Capitani,ristorante,,,VR,,45.575696,10.7059539,,,,,,1673794391,node
Osteria al Porto,ristorante,,,VR,,45.5762347,10.7055419,,,,,,1673794432,node
Club degli artisti,bar,,,VR,,45.2810147,11.0904679,,,,,,1680634590,node
Bar Ferrari,caffè,,,VR,,45.5231458,10.9070976,,,,,,1690088991,node
Senza nome,bar,,,VR,,45.5427502,11.2640328,,,,,,1696380141,node
Senza nome,caffè,,,VR,,45.439446,10.9797903,,,,,,1711107922,node
Trattoria Zanini,ristorante,,,VR,,45.398879,11.2965736,,,,,italian,1717554999,node
Panificio Canterle Wally,panetteria,,,VR,,45.3987302,11.2973601,,,,,,1717555004,node
Cometto Giuseppe,panetteria,"Via Camporosolo, 38",San Bonifacio,VR,37047,45.3952117,11.2721334,+39 045 7610468,,,,,1717555041,node
Bar Regina,bar,,,VR,,45.395788,11.299571,,,,,,1717555044,node
Ristorante Al Fante,ristorante,,,VR,,45.3675016,10.7256746,,,,,regional,1737433988,node
Bar Christian,caffè,,,VR,,45.4476259,10.9715664,,,,,,1739855579,node
Caffè Centrale,caffè,,,VR,,45.4386678,10.9468581,,,,,,1739855589,node
Mamma Mia,ristorante,"Piazza Bra, 20b",,VR,,45.4389401,10.9919103,,,,10:00-24:00,,1754724292,node
Galileo Risto Pub,ristorante,"Piazza Carlo Zinelli, 2",San Giovanni Lupatoto,VR,37057,45.3815187,11.0412086,+39 045 8751158,https://galileoristopub.com/,,Tu-Th 18:30-00:30; Fr-Sa 18:30-01:30; Su 18:30-01:00,,1763162209,node
Bar Muda,bar,,,VR,,45.5637293,11.3700916,+39 0445 962238,,,,,1768159404,node
La Stua,ristorante,"Circonvallazione Monte Baldo, 65",Erbezzo,VR,37020,45.6431804,10.997368,+39 045 7075520,,ristorante.la.stua@045.it,,italian,1772848287,node
Bar Posta,bar,"Via Francesco Feliciano Scolari, 18",Lazise,VR,37017,45.5062413,10.7332229,,,,,,1773050826,node
Caffè del Corso,caffè,"Corso Ospedale, 36",Lazise,VR,37017,45.5063556,10.7325913,,,,,,1773076345,node
CibariuM,ristorante,Piazzale Marra,Lazise,VR,37017,45.5029017,10.7331283,,,,,,1773133063,node
Bar al Porto,caffè,"Via Francesco Fontana, 44",Lazise,VR,37017,45.5053764,10.7312016,,,,,,1773133065,node
Al Drago,ristorante,"Piazza Vittorio Emanuele II, 32",Lazise,VR,37017,45.5053032,10.732779,,https://www.tavernaoreste.it/,,,,1773133066,node
Gallo Nero,ristorante,"Piazza Vittorio Emanuele II, 27",Lazise,VR,37017,45.5053032,10.7325647,,https://www.tavernaoreste.it/,,Mo-Su 11:00-23:00,,1773133067,node
Il Porticciolo,ristorante,"Lungolago Marconi, 22",Lazise,VR,37017,45.5075184,10.7314057,,,,,italian,1773133068,node
El Bistro 36,caffè,,Lazise,VR,37017,45.5058817,10.7348805,,,,,,1773133069,node
Riviera,ristorante,Lungolago Marconi,Lazise,VR,37017,45.5058454,10.7312034,,,,,,1773133072,node
Taverna Marconi,ristorante,Lungolago Marconi,Lazise,VR,37017,45.5063431,10.7310452,,http://www.ristoclassique.it/it/29-8-0/doc/Taverna_Marconi/list.aspx,,,italian,1773133073,node
Tropical,ristorante,"Lungolago Marconi, 8",Lazise,VR,37017,45.5057527,10.7312081,,,,,,1773133074,node
Vela Bianca,ristorante,"Lungolago Marconi, 6",Lazise,VR,37017,45.505543,10.7311337,,,,,,1773133076,node
Poke Gardæn,fast_food,,,VR,,45.5060704,10.7348407,,,,,asian,1773133125,node
Bar Sport,bar,"Piazza Guglielmo Marconi, 8",,VR,,45.6816435,11.3763384,,,,Mo-Su 07:00-02:00,,1788305087,node
Panificio Passarella Mascotto,panetteria,"Via Pecori Giraldi, 24;26",,VR,,45.6835272,11.3763687,,,,"Mo-Sa 07:00-13:00, Mo,Tu,Th-Sa 16:30-19:00",,1788305089,node
Susan,pub,"Via Trieste, 2",,VR,37051,45.259228,11.1206357,,,massimilianoperezzani@gmail.com,"Fr-Sa 07:00-04:00; Su, Tu-Th 07:00-04:00; Mo 09:00-02:00",,1788444699,node
Bar Orchidea,bar,"Vialle Della Repubblica, 11",,VR,37010,45.5859943,10.7409825,,,,,,1791394568,node
La dolce vita,bar,"Corso Giuseppe Garibaldi, 79",Villafranca di Verona,VR,37069,45.3506309,10.847504,+39 045 2226007,,,,,1794180021,node
Tre Corone,bar,Corso Giuseppe Garibaldi,Villafranca di Verona,VR,37069,45.3507254,10.8472901,,,,,,1794180063,node
La Fornica,ristorante,"Piazza Lenotti, 6",,VR,37011,45.5485307,10.7204912,,,,,italian,1795281039,node
Ristorante/Pizzeria  La formica,bar,,,VR,,45.5484638,10.7204798,,,,,,1795288487,node
Il giardino delle Esperidi,ristorante,"Via Goffredo Mameli, 1",Bardolino,VR,37011,45.5483537,10.7200541,+39 045 621 0477,,,,regional,1795289474,node
Caprice,ristorante,,,VR,,45.5482822,10.7198758,,,,,pizza,1795293659,node
Kebab Hauz,fast_food,,,VR,,45.4367617,10.9903207,,,,,kebab,1803264529,node
Scalo,bar,"Piazza Risorgimento, 2c",,VR,37069,45.3493346,10.8482927,,http://win.graffa.it/scaloofficialsite/index.asp,,,,1804960408,node
La Fenice Hostaria,ristorante,"Localita' Boi, 290",,VR,37013,45.6013308,10.7731282,+39 045 7241753,,,,,1805251985,node
Senza nome,bar,,,VR,,45.6013158,10.7730316,,,,,,1805252182,node
Senza nome,caffè,,,VR,,45.5644131,11.3741069,,,,,,1806217489,node
Bal al Cipo,bar,"Piazza Stringa, 34",Caprino Veronese,VR,37013,45.6057253,10.7953606,,,,,,1808926027,node
Senza nome,bar,,,VR,,45.5529639,10.7247568,,,,,,1808944783,node
Trattoria Sarsissa,ristorante,"Piazza Olivo, 6",Castelletto di Brenzone,VR,37010,45.6868284,10.7506357,+39 045 7430402,https://www.trattoriasarsissa.com/,sarsissa@hotmail.it,11:30-24:00,italian,1814623170,node
Le Cedrare,ristorante,,,VR,,45.4696077,11.1819553,,,,,,1821569297,node
Burger King,fast_food,Via Guglielmo Marconi,Bussolengo,VR,37012,45.4734161,10.8412508,,,,"Su-Th 11:30-23:00, Fr,Sa 11:30-01:00",burger,1822884266,node
Trattoria La Pineta,ristorante,"Via Celestino Ledri, 6",,VR,37022,45.5436282,10.8828288,,,,,regional,1824754346,node
Bar centrale,caffè,"Via Bassone, 165a",Verona,VR,37139,45.4529638,10.9002457,,,,,,1827288215,node
Trattoria il Borgo,ristorante,"Via Bassone, 163b",Verona,VR,37139,45.4531138,10.9002921,,,,"Mo-Su 12:00-14:30, 19:00-22:00",italian,1827288217,node
Gaiardoni,panetteria,,,VR,,45.4540712,10.9014791,,,,,,1827288220,node
Senza nome,bar,,,VR,,45.5689326,11.251694,,,,,,1829145076,node
Trattoria Albaromatto,ristorante,,,VR,,45.5699353,11.2406963,,,,,,1829191033,node
Senza nome,panetteria,,,VR,,45.5592917,11.288861,,,,,,1831114359,node
Snoopy,bar,,,VR,,45.5332479,11.3046383,,,,,,1831970136,node
Bottega & Tavola di Corte Palazzina,ristorante,,,VR,,45.4340106,10.985803,,,,,,1835328523,node
Senza nome,caffè,,,VR,,45.4347144,10.9869333,,,,,,1836970011,node
Bar Al Circolo,bar,,,VR,,45.6839604,11.3761174,,,,"Mo,Tu,Th 07:00-22:00, Fr,Sa 07:00-01:00, Su 08:00-21:00",,1837314212,node
La Loggia Dei Due,caffè,"Via Giovanni Della Casa, 6",Verona,VR,37122,45.4346005,10.9844901,,https://laloggiadeidue.com/,,Mo-Sa 07:00-22:00,,1837599141,node
La Piadineria,fast_food,"Via Carmelitani Scalzi, 1b",Verona,VR,37122,45.4351063,10.9844236,,,,,piadina,1837599147,node
Sapore di Pane,panetteria,"Via Luigi Galvani, 41",Verona,VR,,45.4464453,10.9670638,+39 045 8103799,,,,,1846488543,node
Osteria dal Poeta,ristorante,"Via Luigi Galvani, 109",Verona,VR,37138,45.4506187,10.9624069,,,,,regional,1846488544,node
Al Cardinale,bar,,,VR,,45.4229693,11.0931118,,,,,,1854235211,node
Pasticceria Tosi,caffè,Via Unità d'Italia,,VR,37036,45.4241408,11.0861427,,,,,,1855061969,node
Senza nome,caffè,,,VR,,45.4230057,11.0926725,,,,,,1855061972,node
Senza nome,bar,,,VR,,45.4221246,11.0898898,,,,,,1855061975,node
White Es,bar,,Zevio,VR,,45.3695854,11.1076645,,,,,,1855565125,node
I Dolci Sapori,caffè,"Via Venti Settembre, 22",San Martino Buon Albergo,VR,37036,45.4226114,11.0905024,+39 045 501021,,,,,1855600085,node
Blu Bar,bar,,,VR,37036,45.4245304,11.0843213,,,,,,1855621973,node
Senza nome,caffè,,,VR,,45.4141907,11.0898815,,,,,,1855622020,node
Senza nome,bar,,,VR,,45.3994502,11.0865245,,,,,,1856908237,node
Agriturismo La Coetta,ristorante,,,VR,,45.3989756,11.0979454,,,,,,1856964227,node
La Sorgente,ristorante,,,VR,,45.41694,11.0788793,,,,,italian,1858637668,node
Liston 21,bar,,,VR,,45.3746184,11.13637,,,,,,1858712196,node
Senza nome,bar,,,VR,,45.4015859,11.0943932,,,,,,1858712444,node
Senza nome,bar,,,VR,,45.3735352,11.1279503,,,,,,1858712464,node
Senza nome,bar,,,VR,,45.376612,11.1348195,,,,,,1858712475,node
Caffè al Teatro,caffè,"Via Roma, 10a",,VR,,45.4387493,10.990468,,,,,,1860224712,node
Pasticceria San Marco,caffè,,,VR,,45.4407967,10.9683563,,,,"Mo-Sa 07:00-12:30,15:30-19:30; Su 07:30-12:30,15:30-19:30",,1860224736,node
Osteria n°1,ristorante,"Via Flaminio Pellegrini, 2",,VR,37022,45.5397408,10.878428,,https://www.osterianumero1.com/,,Mo; Th-Su,regional,1862047302,node
Ristorante Ca' dei Maghi,ristorante,"Località Ca' dei Maghi, 5",,VR,37022,45.5443208,10.8913562,+39 045 7702355,https://www.cadeimaghi.it/ristorante/,,,regional,1862047303,node
Ristorante Scamperle,ristorante,"Via Incisa, 8",,VR,37022,45.5437906,10.8833851,,,,,regional,1862047314,node
Bar Sport,bar,,,VR,,45.477597,11.0594953,,,,"Mo-Th,Sa 06:30-21:30; Fr 07:00-22:00",,1862864971,node
Agriturismo La Pietra Nera,ristorante,"Via Ranfani, 5",San Giovanni Ilarione,VR,37035,45.5257018,11.2411553,+39 045 655 0331,https://www.lapietranera.it/,,,,1863517376,node
Ristorante Bar da Claudio,ristorante,Via Mazzini,,VR,,45.5278341,11.2381559,,,,,,1863517379,node
Ristorante Rey sol,ristorante,"Via Finato, 6",Concamarise,VR,37050,45.2171791,11.1414712,+39 044 2370246 +39 349 4920886,http://www.reysol.it/,info@reysol.it,,mexican;pizza,1867155356,node
Trattoria Bridi,ristorante,"Via Bridi, 18A",,VR,37059,45.3677774,11.1685708,,http://www.trattoriabridi.com,,,pizza,1868630679,node
37036,bar,,,VR,,45.4217971,11.0890724,,,,,,1870216179,node
Corte Pellegrini,ristorante,"Via Campalto, 18",San Martino Buon Albergo,VR,,45.3972643,11.0837382,+39 340 8658170,https://www.cortepellegrini.com/,info@cortepellegrini.com,,,1873560378,node
Zucchero a velo,caffè,,,VR,,45.6093846,11.0946976,,,,,coffee_shop,1875619808,node
Spighetta,caffè,,,VR,37036,45.4235959,11.1042796,,,,,,1875752047,node
I 13 Comuni,ristorante,"Piazza Vittoria, 31",Velo Veronese,VR,37030,45.6054601,11.0957933,+39 347 1038248,https://www.13comuni.it/,,,regional,1875852438,node
Pizzeria Bar Campara,ristorante,,,VR,,45.5980926,11.1007329,,,,,pizza;bar,1877617478,node
Angel Bar,bar,,,VR,,45.354786,10.7344606,,,,,,1879217978,node
Alla Scimmia,ristorante,,,VR,,45.4328953,11.0826103,,,,,,1880828568,node
Al Ponte,ristorante,,,VR,,45.4434213,11.0785146,+39 045 8920492,,,,,1880828589,node
Pasticceria San Martino,bar,,,VR,,45.4218248,11.093248,,,,,,1880868740,node
Cà Rossa,ristorante,,,VR,,45.5583181,10.7173651,,,,,italian,1885299339,node
Pizzeria Ornella,ristorante,,,VR,,45.4187912,11.1330441,,,,,pizza,1892038732,node
Caffè Zerbato,caffè,,,VR,,45.4196956,11.1334665,,,,,,1892038913,node
Senza nome,pub,,,VR,,45.417249,11.1557899,,,,,,1893448807,node
Senza nome,ristorante,,,VR,,45.4171831,11.1575548,,,,,sushi,1893449293,node
"Pizzeria ""Al Rio""",ristorante,,,VR,,45.4541493,11.3361291,,,,,pizza,1896083328,node
John Barleycorn Pub,pub,,,VR,,45.4625547,11.337669,,,,,,1896656238,node
Mystic Pizza,ristorante,,,VR,,45.4624098,11.3395295,,,,,pizza,1896721524,node
Bar Palladio,bar,,,VR,,45.4613715,11.3411773,,,,,,1896739993,node
Senza nome,caffè,,,VR,,45.3763583,11.1324196,,,,,,1904468786,node
Girò,ristorante,,,VR,,45.4254251,11.1370419,,,,,pizza,1908567926,node
Industry Beer Park,ristorante,"Via 4 Strade, 12",Lavagno,VR,37030,45.424226,11.1317634,,,,,pizza;italian;sandwich;american,1908568064,node
Bar Le 4 strade,bar,,,VR,,45.4256811,11.1370902,,,,,,1908569679,node
Caffé Coloniale,caffè,"Piazza Francesco Viviani, 14c",Verona,VR,37121,45.4419149,10.9994465,+39 045 8012647,,,,,1911948205,node
Pizzeria Saval,ristorante,"Via Quarto Ponte, 17d",Verona,VR,37138,45.4503614,10.9644919,+39 045 576805,,,,pizza,1918298831,node
Punjab,ristorante,"Via Marin Faliero, 61",Verona,VR,37138,45.4524032,10.9655734,,,,,pizza,1918298842,node
Senza nome,bar,,,VR,,45.4222545,11.0990396,,,,,,1926156679,node
Malaspina,ristorante,,,VR,,45.2890736,11.1999143,,,,,pizza,1930730969,node
Perbellini,ristorante,"Via Muselle, 130",Isola Rizza,VR,37050,45.2859243,11.1876728,,https://www.perbellini.com/,,,,1930730971,node
Trattoria Sartori,ristorante,,,VR,,45.2922172,11.1974842,,,,,Trattoria,1930739220,node
Tito's bar,caffè,,,VR,,45.4566226,10.9457425,,,,,,1935883687,node
Intrigante,ristorante,"Via Puglie, 79",Verona,VR,37139,45.4567108,10.945244,+39 045 2225561,http://bistro79.it,info@bistro79.it,Mo-Su 07:00-23:00,pizza,1935883689,node
Senza nome,bar,,,VR,,45.4197864,10.9751049,,,,,,1935998224,node
Pollo Campero,fast_food,,,VR,,45.3945449,11.0144616,,,,,chicken,1936585917,node
Pollo Campero,fast_food,,,VR,,45.5523977,10.784276,,,,,chicken,1936587941,node
Agriturismo La Frasca,ristorante,"Via Mazzasetti, 8",San Giovanni Ilarione,VR,37035,45.5118136,11.2331598,+39 0456550594,http://www.agriturismolafrasca.it,info@agriturismolafrasca.it,,italian;regional,1938392149,node
Trattoria Andreoli,ristorante,,,VR,,45.3690108,11.1102087,,,,,,1940069158,node
San Paolo,caffè,"Via San Paolo, 32",Verona,VR,37129,45.4389557,11.0040135,,,,Mo-Fr 07:00-19:00; Sa 08:00-12:30,,1943453395,node
Cambridge,bar,,,VR,,45.4374925,11.0031578,,,,,,1943453398,node
The Mill,bar,,,VR,,45.4384367,11.0043486,,,,,,1947321174,node
Senza nome,bar,,,VR,,45.4257824,11.0994878,,,,,,1949942684,node
Pasticceria Stanga,caffè,Via Brenta,,VR,37036,45.4261607,11.1008569,,,,,,1949942736,node
Il Gelato di Camilla,ristorante,"Via Adamello, 2B",San Martino Buon Albergo,VR,37036,45.4259127,11.0996495,+39 045 991050,,ilgelatodicamilla@yahoo.com,,ice_cream;pastry,1949942781,node
Pizzeria Lui & Lei,ristorante,Via Adamello,,VR,37036,45.4257778,11.0999141,,,,,pizza,1949942807,node
Pizzeria al Maglio,ristorante,Via Maglio,,VR,37036,45.4165858,11.1062252,,,,,,1950424612,node
Greppia,ristorante,"Vicolo Samaritana, 3",Verona,VR,37121,45.4417238,10.9976269,,,,,regional,1950739648,node
100dieci,bar,Via Campofiore,,VR,37129,45.4380982,11.007298,,,,"Mo-Fr 07:00-15:00,18:00-02:00, Sa 08:00-15:00",,1955773795,node
Anteprima,bar,"Via Campofiore, 1",,VR,,45.4376987,11.0046246,,,,,,1955773853,node
Tiger Bar,bar,,,VR,,45.5546522,11.3790965,,,,,,1979221313,node
Oasi della Pizza,fast_food,,,VR,,45.5640027,11.3744749,,,,,,1979233621,node
Pasticceria Babette,caffè,,,VR,,45.5640593,11.3743643,,,,,,1979233622,node
Panetteria,panetteria,,,VR,,45.5641779,11.3729312,,,,,,1979236310,node
Ristorante Pizzeria Jolly,ristorante,Via Stazione,Trissino,VR,,45.5644727,11.3853336,,,,Su off,seafood,1979260097,node
Malù Bar,bar,Via Santuario,,VR,,45.6422566,10.8722586,,,,,,1981832757,node
Agriturismo Val del Tasso,ristorante,,,VR,,45.5305039,10.7976566,,https://www.valdeltasso.it/,,,,1983164328,node
Panormica,ristorante,,,VR,,45.4276594,11.2021384,,,,,,1985784316,node
Bar Centrale,bar,"Piazza Unità d'Italia, 14",,VR,37030,45.4821422,11.1271452,,,,,,1996165350,node
Bar Ciclamino,bar,,,VR,,45.5705978,10.870388,,,,,,1998673813,node
il serraglio B&B,ristorante,,,VR,,45.3925133,10.7726741,,,,,,2019574493,node
La bottega del pane,panetteria,,,VR,,45.4476878,10.9594084,,,,,,2028567814,node
Senza nome,ristorante,,,VR,,45.3965894,11.2799223,,,,,,2030900769,node
Stadio,ristorante,,,VR,,45.4004269,11.2773434,,,,,,2030900778,node
Senza nome,caffè,,,VR,,45.3954781,11.2804265,,,,,,2030900784,node
Senza nome,panetteria,,,VR,,45.4339163,11.0197078,,,,,,2035718400,node
Senza nome,bar,,,VR,,45.6218736,11.0273926,,,,,,2052630421,node
Bar Station,bar,,,VR,,45.6339689,11.3066128,,,,,,2083678419,node
La Fucina,ristorante,,,VR,,45.4699749,10.8507877,+39 045 670 3344,https://www.ristorantefucina.it/,info@ristorantefucina.it,,italian;pizza,2099815598,node
La Locanda Enoteca,ristorante,"Via Ponte Pietra, 23",,VR,,45.4470317,10.9994811,,,,,,2105432526,node
Carnero,ristorante,"Via Vento, 1",,VR,,45.551311,10.7920111,,,,,,2133465670,node
Tyffani,caffè,,,VR,,45.4155642,11.179125,,,,,,2134238430,node
Il Filò di Compri S.,ristorante,"Via Strà, 54",,VR,37030,45.4152607,11.1815696,,,,,italian,2134238521,node
Barcollo,bar,"Via Principe Amedeo, 120",Rosegaferro,VR,37069,45.3435244,10.8081113,,,,,,2158168354,node
Pizzeria Le rose,ristorante,"Via Giuseppe Zamboni, 22",Rosegaferro,VR,37069,45.3413319,10.8153104,+39 045 630 1927,,,,pizza,2158171287,node
Pizzeria ristorante,ristorante,,,VR,,45.3111412,10.8248823,,,,,pizza,2158745675,node
Le Fregole,panetteria,,,VR,,45.3514301,10.8400479,,,,,,2158766986,node
Ristorante Palazzetto,ristorante,,,VR,,45.5838981,11.3810445,,,,,,2159290645,node
Speck Stube Valeggio,ristorante,"Via Monzambano, 1021",Valeggio sul Mincio,VR,,45.3647759,10.7252111,,http://www.speckstubevaleggio.it/,,,tyrolean,2161269450,node
Baita Alpini,bar,,,VR,,45.3960461,11.2994874,,,,,,2173963652,node
Antica Osteria,ristorante,,,VR,,45.5698696,10.7464036,+39 045 6200320; +39 340 3723606,http://www.anticaosteria.eu/,info@anticaosteria.eu,,italian;pizza;regional,2194151808,node
Ristorante San Valentino,ristorante,,,VR,,45.5558505,11.1189439,,,,,,2196182173,node
Poli Bar,bar,,,VR,,45.4173514,10.8982582,,,,,,2203041865,node
Baraonda caffè,bar,,,VR,,45.3504724,10.7378085,,,,,,2211559168,node
Pizzeria Delle Nazioni,ristorante,"Circonvallazione Alfredo Oriani, 2e",Verona,VR,37122,45.4319438,10.986984,,,,"Mo-Sa 11:30-15:00,18:00-23:00",italian;pizza,2221769892,node
La Lanterna - enoteca,bar,,,VR,,45.558848,11.3852413,,,,,,2222255244,node
Gourmet,ristorante,"Via Staffali, 42",Dossobuono,VR,37062,45.3889443,10.9045903,+39 045 987212,https://www.gourmetpizzaecucina.com/it/index.php,info@gourmetpizzaecucina.com,,italian;pizza,2242869341,node
La città d'oro Liu Xiao,ristorante,"Via Nino Bixio, 144",,VR,37069,45.3541604,10.8421411,,,,,chinese,2246915231,node
Birreria paninoteca gelateria La ruota,bar,"Via Raffaello Sanzio, 31",Borghetto di Valeggio sul Mincio,VR,37067,45.3536878,10.7251046,+39 3476805241,,,,,2250232943,node
Tre Molini,bar,,,VR,,45.3594721,10.728047,,,,,,2250257844,node
Senza nome,bar,,,VR,,45.5899938,11.3680573,,,,,,2261259653,node
Antica Osteria Molinari,ristorante,"Via Porto, 1",Pacengo,VR,37010,45.4671468,10.7205722,+39 045 759 0163,,,,italian,2265999747,node
Bar dalle Bionde,caffè,"Piazza Senatore Alberti, 7",Pacengo,VR,37010,45.4674442,10.7210558,,,,,,2265999748,node
Senza nome,ristorante,,,VR,,45.4674276,10.7212525,,,,,,2265999788,node
Il Richiamo,ristorante,,,VR,,45.3570745,10.9355651,,,,,,2273133246,node
Montecristo,bar,,,VR,,45.3567378,10.9454593,,,,,,2273133249,node
Senza nome,panetteria,,,VR,,45.3567652,10.9432626,,,,,,2273133431,node
Senza nome,fast_food,,,VR,,45.3577364,10.9354521,,,,,pizza,2273133481,node
Bar Mythos,pub,,,VR,,45.4382848,10.7223204,,,,,,2273806895,node
Il Forno di Nereo,panetteria,"Via Venti Settembre, 42",,VR,,45.43806,10.7249274,,,,,,2273806897,node
Tavernetta,ristorante,,,VR,,45.4381176,10.7211172,,,,,,2273806918,node
Bar Italy da Enzo & Antonio,caffè,,,VR,,45.611823,10.7024212,,,,,,2278116010,node
Le Tavernette,ristorante,"Via Corrubbio, 12",Albisano,VR,37010,45.6119437,10.703683,+39 045 7225832,https://pizzeria-le-tavernette.business.site,,,pizza;italian,2278116012,node
Osteria O La Va O La Spacca,ristorante,"Via Brennero, 36",Balconi di Pescantina,VR,37026,45.4955713,10.8741044,+39 045 6704997; +39 380 3051339,http://www.olavaolaspacca.it,osteriaolavaolaspacca@yahoo.it,Tu-Su 19:00-00:30,,2279245186,node
Hartigan's,pub,"Vicoletto Cieco Disciplina, 2",Verona,VR,37121,45.4400513,10.991049,+39 045 8032291,,,,,2280539136,node
Re Carlo,pub,"Via Carlo Cattaneo, 12",Verona,VR,37121,45.4396094,10.9916085,+39 045 8007604,,,,,2280539137,node
Ristorante Pizzeria Il Merlo,ristorante,Via Lungo Lago Regina Adelaide,Garda,VR,37016,45.5738322,10.7071578,,,,,italian,2280591576,node
Pizzeria Ristorante Ca' del Borgo,ristorante,"Borgo Giuseppe Garibaldi, 15",Bardolino,VR,37011,45.5489861,10.7207687,+39 045 7210603,http://www.laconchigliabardolino.com,,,italian,2281867977,node
Cà billi,ristorante,"Vialle della Repubblica, 3",,VR,,45.584988,10.7422305,+39 045 6200883,http://www.trattoriacabilli.it,,,italian,2283008441,node
Senza nome,caffè,"Via Tangenziale Esterna, 3",Peschiera del Garda,VR,,45.4331272,10.7098602,,,,,,2283928022,node
Ristorante Pizzeria Italy,ristorante,"Via Oliveti, 7",,VR,37010,45.6112599,10.7021064,+39 045 629 6059,,,,italian,2288778061,node
alla Borsa,ristorante,"Via Goito, 2",Valeggio sul Mincio,VR,37067,45.3524807,10.7338745,+39 045 7950093,https://www.ristoranteborsa.it/,ristoranteborsa@gmail.com,"Mo 12:00-14:00,19:00-22:00; Tu-We off; Th,Fr,Su 12:00-15:00; Sa 12:00-15:00,19:00-22:00",italian,2290026399,node
Senza nome,panetteria,,,VR,,45.4411165,11.021717,,,,,,2290837980,node
Life 4.0,bar,,,VR,,45.4433296,11.0234229,,,,,,2290838858,node
Fermento,fast_food,,,VR,,45.4430398,11.0232297,,,,,pizza,2290838966,node
Pizzeria ai Lamberti,ristorante,,,VR,,45.4434886,10.9970857,,,,,pizza,2291123839,node
Dal Mato,ristorante,,,VR,,45.4362694,10.7093884,,,,,,2291820145,node
Ristorante Pilotto,ristorante,"Strada Mandella-Baracca, 8",Peschiera del Garda,VR,37019,45.433899,10.7079648,,,,,italian,2291820209,node
Al Cacciatore,ristorante,,,VR,,45.3520352,10.7345039,,,,,,2291850895,node
Bar Scaligero,pub,,,VR,,45.3518657,10.7342326,,,,,,2291850896,node
La Torre,ristorante,"Via Circonvallazione Sud, 1",Valleggio sul Mincio,VR,,45.352053,10.7352569,,,,,,2291850897,node
Bar Pasticceria Martini,caffè,"Piazza Carlo Alberto, 40",Valeggio sul Mincio,VR,37067,45.3537606,10.7342169,+39 045 7950033,,,"Mo off; Tu-Su 07:00-13:00, 15:30-20:30",,2291884642,node
Café Doc,caffè,,,VR,,45.354064,10.7346109,,,,,,2291884644,node
Ristorante Castello,ristorante,,,VR,,45.3531329,10.733372,,,,,,2291884656,node
Tre Corone,ristorante,,,VR,,45.3541328,10.734367,,,,,,2291884659,node
Olivo,ristorante,"Piazza Olivo, 10",Castelletto di Brenzone,VR,37010,45.6864805,10.7506872,+39 045 485 6221,https://www.holidaymantovani.it/,,"Mo-Su 11:30-14:30, 17:30-23:30",,2298414216,node
Mada Bar & Pizzeria,bar,"Via Angeleri, 5",Castelletto di Brenzone,VR,37010,45.6872275,10.7502569,+39 342 1241406,,mellypanzera78@gmail.com,,pizza,2298439329,node
Osteria al Pescatore,ristorante,"Via Imbarcadero, 31",Castelletto di Brenzone,VR,37010,45.6871826,10.7497917,,https://www.osteriaalpescatore.it/,,Tu-Su 19:30-22:00; Mo off,,2298439330,node
el Cossett,caffè,,,VR,,45.6877452,10.750063,,,,,,2298439334,node
Bar Morandini,caffè,"Piazza Vittorio Emanuele, 16b",Sant'Anna d'Alfaedo,VR,37020,45.6272907,10.951266,+39 045 7532979,,,,ice_cream,2304896568,node
Pizzeria,ristorante,,,VR,,45.5994951,10.7583292,,,,,italian,2305986680,node
Senza nome,bar,,,VR,,45.6186376,10.8246707,,,,,,2307661964,node
Gelateria Caffetteria San Vito,caffè,,,VR,,45.6891198,11.3733989,+3904451741048,,,,,2309348330,node
Torre al Casello,bar,,,VR,,45.5625615,10.7126762,,,,,,2311203678,node
La Bussola,ristorante,"Via Spagna, 29",,VR,37016,45.5759759,10.706603,+39 045 7256475,http://www.labussolagarda.com,,,italian,2311203681,node
Albergo Ristorante Grossule,ristorante,"Via San Francesco, 12",Roverè Veronese,VR,37028,45.6259437,11.0715214,,,,,regional,2319431175,node
Ristorante Orfea,ristorante,,,VR,,45.6259606,11.0721115,,,,,regional,2319431177,node
Albergo Ristorante Jegher,ristorante,,,VR,,45.6051523,11.069629,,,,,regional,2319504522,node
Pellini Bar,bar,,,VR,,45.3529905,11.1925816,,,,,,2320446264,node
Ristorante Parparo Vecchio,ristorante,,Roverè,VR,37028,45.6508028,11.0943121,+39 045 7835476,http://www.parparovecchio.it/#all,nfo@parparovecchio.it,,regional,2321854855,node
Senza nome,ristorante,,,VR,,45.437036,10.7164512,,,,,,2325992471,node
Bruschetteria Al Solito Costo,fast_food,,,VR,,45.5169996,11.3636305,,,,,,2338103395,node
365 Easy Restaurant,ristorante,"Via Sile, 40",Mote di Malo,VR,,45.6542625,11.3940087,,,,,,2338281237,node
Il Forno,panetteria,,,VR,,45.6349725,11.3734352,,,,,,2348365554,node
Al Graspo,ristorante,"Piazza Calderini, 12",Garda,VR,,45.5754683,10.7084577,+39 045 7256046,,,,fish,2353637943,node
Bar Luna,bar,,,VR,,45.4521621,10.9658398,,,,,,2360204119,node
Senza nome,ristorante,,,VR,,45.5540793,10.7343114,,,,,,2364139494,node
Senza nome,bar,,,VR,,45.554083,10.7341558,,,,,,2364139495,node
Panificio Borzaga,panetteria,,,VR,,45.6940101,11.36956,,,,"Sep-Jun Mo-Sa 07:00-13:00, Sep-Jun Mo,Tu,Th-Sa 16:00-19:00, Jul-Aug Mo-Sa 07:00-13:00",,2367339489,node
Trattoria Bar Panoramico Crero,ristorante,,,VR,,45.6391271,10.7115832,,http://www.crero.it/,,"Th-Tu 12:00-14:30, 18:30-21:30; We off",,2373299259,node
Bar Bertolini,bar,"Via San Luigi, 419",Pesina,VR,37013,45.5990285,10.7555259,,,,,,2373378806,node
Al Paradiso,ristorante,"Via Porta del Lion, 7",Lazise,VR,37017,45.5044431,10.7332255,,,,,pizza,2374719315,node
La Terrazza di Cisano,ristorante,,,VR,,45.524637,10.7275307,,,,Mo-Su 08:00-23:00,,2379058976,node
Senza nome,bar,,,VR,,45.5248717,10.7272528,,,,,,2379059565,node
Lucky Indian Doner Kebab,fast_food,"Via Teatro Filarmonico, 6b",Verona,VR,37121,45.439023,10.9910743,+39 327 1947596,http://www.luckyindiandonerkebab.it/,,"Mo-Fr 00:00-02:00,10:30-24:00; Sa,Su 00:00-04:00,10:30-24:00",kebab,2381215276,node
Regnum,ristorante,"Via Gian Matteo Giberti, 6",Verona,VR,,45.4344928,10.986929,,,,,pizza,2381215282,node
Caffè degli Artisti,caffè,"Via Leoncino, 46a",,VR,37121,45.4385972,10.9953812,,,,,,2381215289,node
Tre Rape Trattoria - Pizzeria,ristorante,"Via Madonnetta, 7/b",San Vito di Leguzzano,VR,36030,45.6789099,11.3815962,+390445670486,https://www.trerape.com/,info@trerape.com,"Mo-Su,PH 18:00-24:00, Su 12:00-14:00",italian,2383568492,node
La Bastia,ristorante,,,VR,,45.3526421,10.7314795,,https://www.hotelbastia.it/,,"Tu-Fr 19:30-24:00; Sa,Su 12:30-14:30,19:30-24:00",,2386936426,node
Pizzeria da Gaetano 2,ristorante,"Via Magenta, 5",Villafranca di Verona,VR,37069,45.3560956,10.8389433,+39 045 7902977,,,,pizza,2387688550,node
Pico Verde,ristorante,"Via Ossario, 19",Custoza,VR,37062,45.3772784,10.7909035,+39 045 516025,https://www.picoverde.it/,,,italian;pizza,2397911285,node
sciò rum,bar,"Via Sant'Alessio, 46",Verona,VR,37129,45.4493925,10.9971857,,,,"Mo 06:00-24:00; Tu-Sa 00:00-03:00,06:00-24:00; Su 00:00-03:00",,2401507192,node
Senza nome,bar,,,VR,,45.4269498,10.7863392,,,,,,2403642846,node
Senza nome,bar,,,VR,,45.4239979,10.7850459,,,,,,2403657170,node
Senza nome,bar,,,VR,,45.3760681,10.7952703,,,,,,2403927390,node
Country House Casino di Caccia,ristorante,,,VR,,45.3881067,10.8005504,,,,,regional,2404222148,node
Bar Bianchi,caffè,"Via Roma, 2",Erbezzo,VR,37020,45.6393736,11.0009308,+39 045 7075235,,,,,2404915429,node
Bar dell'Alpino,caffè,"Piazza dei Combattenti, 2",Erbezzo,VR,37020,45.6401665,11.0016707,,,,Mo-Sa 07:00-22:00; Su 08:00-22:00,,2404915432,node
Berna,ristorante,"Via Roma, 79",Erbezzo,VR,37020,45.6408141,11.0010002,+39 045 7075018,,,,pizza,2404915433,node
Panificio Macelleria Massella,panetteria,"Circonvallazione Monte Baldo, 12",Erbezzo,VR,37020,45.6404215,11.0004117,+39 045 7075285,,,,,2404915459,node
La Creperie,bar,"Piazza Guglielmo Marconi, 40, 41",Bosco Chiesanuova,VR,,45.6226065,11.0301512,,,,,,2405176902,node
Markas,ristorante,,,VR,,45.4054307,10.9917921,,,,,,2406030399,node
Pizzeria l'angolo verde,ristorante,,,VR,,45.5779634,10.9594769,,,,,pizza,2406057075,node
Senza nome,bar,,,VR,,45.5790699,10.9645227,,,,,,2406087648,node
Senza nome,bar,,,VR,,45.5819049,10.9703491,,,,,,2406087657,node
Senza nome,ristorante,,,VR,,45.5686469,10.9573021,,,,,pizza,2406152072,node
Senza nome,panetteria,,,VR,,45.5801105,10.9642108,,,,,,2406152088,node
Pizzeria Ristorante Mazzi,ristorante,,,VR,,45.3324585,10.7537902,,,,,pizza,2409890238,node
Al Gavinel,ristorante,"Via Ceredo, 69",Ceredo,VR,37020,45.6221808,10.9731318,,,,,pizza,2424072819,node
Cà Persiane,ristorante,"Località Cà Persiane, 1",Cavaion Veronese,VR,37013,45.5306572,10.7783284,+39 045 7236847,http://www.agriturismocapersiane.com,,,italian,2425250260,node
Paglia e Fieno,ristorante,"Via San Zeno, 54",Cerea,VR,37053,45.2046867,11.2029775,,,,,,2426365564,node
Galleria Caffè,bar,"Via San Giovanni, 46",,VR,36045,45.3895902,11.3809951,,,,,,2428298822,node
Birreria Knixknox,pub,"Piazza Martiri della Libertà, 1",,VR,46047,45.2041338,10.7929482,,http://www.knixknox.com/index.php,,,,2429593130,node
Senza nome,ristorante,,,VR,,45.2065603,10.7933881,,,,,,2429593133,node
Senza nome,ristorante,,,VR,,45.2063675,10.7960917,,,,,,2429593136,node
Trattoria La Baracchetta,ristorante,"Via Vicenza, 21",San Vito di Leguzzano,VR,36030,45.6888333,11.3945341,,,,"Mo-Fr 06:00-14:00,16:00-20:00",,2443312869,node
Trattoria Tre Marchetti,ristorante,,,VR,,45.4398407,10.9942903,,,,,italian,2450346211,node
Golden Beach,ristorante,,,VR,,45.497629,10.7332666,,,,07:00-23:00,pizza,2450588315,node
Ristorante La Pergola,ristorante,,,VR,,45.4960624,10.7378558,,,,Mo-Su 08:00-23:00,pizza;italian;burger,2450758120,node
Senza nome,bar,,,VR,,45.4960741,10.738,,,,08:00-23:00,,2450758122,node
Bar Pizzeria Gelateria Galetto,ristorante,"Piazza San Rocco, 24",Valeggio Sul Mincio,VR,37067,45.3553826,10.7325571,+39 045 7950047,,,,regional,2451030952,node
Origano,ristorante,,,VR,,45.4534346,10.7027233,,http://www.ristoclassique.it/origano/origano.html,origano@ristoclassique.it,Mo-Su 08:00-23:00,,2454711194,node
Trattoria Al Cacciatore,ristorante,,,VR,,45.6342751,11.3736617,,,,,italian,2457822024,node
Aci Caffé,caffè,,,VR,,45.4349954,10.9871728,,,,Mo-Fr 07:30-18:00,,2463644831,node
Osteria Paverno,ristorante,,,VR,,45.5381697,10.913033,,,,,,2465442285,node
Bar Italia,caffè,,,VR,,45.5306789,10.9384734,,,,"Mo-Th 10:00-20:00; Fr,Sa 10:00-24:00",,2465492591,node
Rose e basilico,ristorante,,,VR,,45.5310122,10.9369052,,,,,,2465492602,node
Caffè Europa,bar,,,VR,,45.5305433,10.9379301,,,,,,2465502753,node
Senza nome,bar,,,VR,,45.5181847,10.9076883,,,,,,2465530266,node
Superpizza,ristorante,,,VR,,45.3523624,10.7376929,,,,,pizza,2467496144,node
Osteria al Vicolo,ristorante,"Via Venti Settembre, 23",Garda,VR,,45.5743818,10.7093892,+39 045 6279113,,,,italian,2467706096,node
Antico Ristorante Al Pesso,ristorante,"Stradella S. Antonio, 4",Trissino,VR,36070,45.5650485,11.3629854,,,,,italian,2469135422,node
Snack bar,bar,,,VR,,45.5442905,10.8224988,,,,,,2471066352,node
Kobe,ristorante,"Corso Porta Nuova, 101",Verona,VR,37122,45.4336021,10.9895584,+39 045 8030722,https://www.ristorantekobe.it/,,"We-Mo 12:10-14:45,19:15-23:45",japanese,2472043691,node
Bar Rita,caffè,,,VR,,45.449268,10.9604755,,,,,,2473297349,node
Senza nome,fast_food,"Via Selinunte, 41",,VR,37138,45.4493743,10.9583542,,,,,pizza,2473297350,node
Al Forte,ristorante,,,VR,,45.4895987,10.8100508,+39 045 7170683,https://www.ristorantealforte.com/,,,,2473883000,node
Caffè Marconi,bar,,,VR,,45.49193,10.7997593,,,,,,2473883003,node
Ristorante Caserma Leopold,ristorante,"Località Telegrafo, 6",,VR,,45.485438,10.8044923,,,,,,2473883006,node
Trattoria alla Madonna,ristorante,,,VR,,45.4919642,10.8001305,,,,,,2473883008,node
Pizzeria Gardesana,ristorante,,,VR,,45.468841,10.8545758,,,,,,2476439292,node
L'Angolo di San Valentino,bar,,,VR,,45.4715941,10.8500149,,,,,,2476439299,node
Caffè Mazzini,caffè,"Piazza XXVI Aprile, 28",Bussolengo,VR,37012,45.4745232,10.847944,+39 045 6766205,,,,,2476439313,node
Senza nome,bar,,,VR,,45.5217677,10.8027063,,,,,,2476537377,node
Bar Ristorante DA RIGO,ristorante,,,VR,,45.5223445,10.8028365,,,,Mo-Sa 08:00-18:00,regional;italian,2476537392,node
Ostregheteria Sottoriva 23,ristorante,,,VR,,45.4451016,11.0004575,,,,Mo-Su 11:00-24:00,,2476955283,node
Pizzeria Trattoria Gaon,ristorante,"Localita Goan, 41",,VR,,45.6140652,10.7973205,+39456230531,,,"Mo,Tu 17:30-23:00; Th 11:00-14:30,17:30-23:00; Fr 11:00-16:30,17:30-23:00; Sa 11:00-16:30,17:30-23:00; Su 11:00-14:30,17:30-23:00",italian,2479049039,node
Bar Pasticceria la Prua,bar,,,VR,,45.5070119,10.8396007,,,,,,2480490314,node
Beppe's Bar,caffè,,,VR,,45.4493064,10.9577296,,,,,,2481066697,node
L'Isola della Pizza,ristorante,"Via Stazione, 60",Dossobuono,VR,37062,45.3906062,10.9157535,,http://www.lisoladellapizza-vr.net,,Mo-Su 18:30-22:30; Tu off,italian;pizza,2483393786,node
Pizzeria da Paolo,ristorante,"Via Cavour, 13",Dossobuono,VR,37062,45.3961769,10.912494,+39 045 8600042,,,"Mo-Fr 12:00-14:30, 19:00-22:30; Sa-Su 19:00-22:30",pizza,2483401678,node
Bar Ultima Tappa,bar,,,VR,,45.3914754,11.3584198,,,,,,2486501172,node
Sushi Home,ristorante,"Via Città di Nimes, 10",Verona,VR,,45.4330117,10.9842333,+39 045 832 5361,https://sushihome.it/,info@sushiverona.it,"Tu-Su 10:30-14:30, 17:30-22:30",japanese,2487735367,node
Bar pasticceria Gioia,bar,"Via Vertua, 7c",Dossobuono,VR,37062,45.3956769,10.9145085,,,,,,2493034651,node
Ristorante Cavour,ristorante,"Via Cavour, 40",Dossobuono,VR,37062,45.3968256,10.9146521,+39 045 513038,,,"Mo-Sa 12:15-14:15,19:30-22:00",italian,2493991052,node
Bar Dante,caffè,"Galleria Dante, 1",Valdagno,VR,36078,45.6474823,11.300488,,,,"Mo-Sa 07:30-13:00, Mo-Fr 15:00-20:00, Sa 16:00-24:00",coffee_shop,2503962089,node
Pizzeria Graziella,ristorante,,,VR,,45.6136746,11.3010424,,,,,,2504438996,node
Burger King,fast_food,,,VR,,45.4130257,11.0947275,,,,,burger,2506496254,node
Senza nome,bar,,,VR,,45.4121255,11.0929333,,,,,,2506496267,node
Senza nome,bar,,,VR,,45.4121163,11.0924661,,,,,,2506496279,node
Trattoria Vecio Balilla,ristorante,"Via Cesare Battisti, 10",Isola della Scala,VR,37063,45.2728124,11.0071909,+39 045 7300840,https://www.trattoriaveciobalilla.com/,,,regional,2507775052,node
Agriturismo il Porcellino,ristorante,"Via San Vincenzo, 7",Verona,VR,37142,45.4963376,11.0026277,+39 349 4463505,https://www.agriturismoilporcellino.com/it/,fulvio@agriturismoilporcellino.com,,,2510155954,node
Cafè Giardino,bar,Via Cavour,Dossobuono,VR,37062,45.3962264,10.9135738,,,,,,2513000983,node
Ristorante Ciccarelli,ristorante,,,VR,,45.405572,10.928814,,,,,italian,2513000985,node
Bar Paninoteca Fiordaliso,bar,"Via Milone, 8",,VR,,45.445812,10.9450167,,,,,,2519509913,node
Senza nome,bar,,,VR,,45.5032536,10.9351209,,,,,,2522840359,node
Senza nome,ristorante,,,VR,,45.6173898,11.2621025,,,,,,2524198022,node
VIlla Pizzati,ristorante,,,VR,,45.6246552,11.2612387,,,,,,2524198045,node
Bellavista,ristorante,,,VR,,45.5476772,11.1209633,,,,,,2526309725,node
Bettola,ristorante,,,VR,,45.5451398,11.1263203,,,,,,2531940130,node
Bar Palazzetto,bar,"Via Leonardo da Vinci, 24",Verona,VR,37138,45.4379715,10.9714762,,,,,,2538045000,node
Pizzeria Trattoria Maestà,ristorante,"Via Mantovana, 78",Verona,VR,37137,45.4212096,10.9538658,,https://www.veronapizzerie.com/,maesta@pizzeriamaesta.it,,,2538048647,node
Pizzeria La Sorpresa,ristorante,"Via Cavour, 14",Dossobuono,VR,37062,45.3957241,10.9126699,+39 045 986895,,,"Mo-Su 12:00-15:00, 19:30-22:00",pizza,2538063555,node
Lido Mirabello Beach,bar,"Lungolago F. Cipriani, 3",Bardolino,VR,37011,45.5435928,10.7195869,,,,,,2538279899,node
Café Italia,bar,"Piazza P. Amadeo, 4",,VR,37011,45.546304,10.719749,+39 045 7211585,,,,,2538279900,node
Marilyn Lounge Bar,bar,,,VR,,45.5476628,10.7199053,,,,,,2538302649,node
Bar Matè,bar,"Via Goffredo Mameli, 23",Bardolino,VR,37011,45.5481166,10.7195503,+39 045 621 0387,http://www.matebar.it/,,,,2538302654,node
L'ate della pizza,ristorante,"Via Goffredo Mameli, 19",Bardolino,VR,37011,45.5481484,10.7196128,,,,,pizza,2538302655,node
Bar Blanka,bar,"Via Goffredo Mameli, 13",Bardolino,VR,37011,45.5481937,10.7197092,+39 3480620123,,,,,2538302656,node
Osteria del Lago,ristorante,"Via Goffredo Mameli, 7",Bardolino,VR,37011,45.5483058,10.7199077,+39 045 252 8678,,,,regional,2538302659,node
Bar Pizzeria Caprice,bar,"Via Goffredo Mameli, 3",Bardolino,VR,37011,45.5483352,10.7199749,+39 045 721 0144,,,,,2538302665,node
Ristorante Pizzeria Casanova,ristorante,"Via Goffredo Mameli, 16",Bardolino,VR,37011,45.548399,10.7198524,+39 045 621 1260,,,,pizza,2538317617,node
Ristorante Bar Pizzeria La lanterna,ristorante,"Via Goffredo Mameli, 18",Bardolino,VR,37011,45.5482905,10.7196281,+39 045 621 0515,http://www.lalanternabardolino.com/,,,,2538317619,node
Italiana Caffè,caffè,,,VR,,45.6107597,11.3440631,,,,,,2540543227,node
Free Food,ristorante,Via Thomas Alva Edison,Zevio,VR,37059,45.3620533,11.0462919,,,,,italian,2541667174,node
Osteria al Managheto,bar,"Vicolo Cere, 24",Verona,VR,37123,45.4438487,10.976495,,,,,,2573534577,node
Senza nome,bar,,,VR,,45.4000571,11.0040557,,,,,,2579649756,node
Nespresso,caffè,"Corso Porta Borsari, 51",Verona,VR,37121,45.4421177,10.9938873,,,,Mo-Sa 09:00-19:30; Su 09:30-19:00,,2579679611,node
Caffè Venezia,caffè,,,VR,,45.4398747,11.0168142,,,,,,2582147937,node
Caffè Centrale,caffè,,,VR,,45.4340253,11.0411406,,,,,,2582323591,node
Osteria Giulietta e Romeo,ristorante,"Corso Sant'Anastasia, 27",Verona,VR,37121,45.4443078,10.997998,+39 045 800 9177,,,,regional,2588763548,node
Bar Trattoria Il Cavallino,ristorante,"Via Giuseppe Verdi, 8",Valeggio Sul Mincio,VR,37067,45.3556913,10.7329391,+39 045 7951138,,,,regional,2590679442,node
Pamy,bar,"Via Don Giovanni Minzoni, 5a",Valleggio sul Mincio,VR,37067,45.3548385,10.7359204,+39 347 307 2763,,,,,2590692485,node
Laita,ristorante,"Via Laita Righello, 4/7",Altissimo,VR,,45.6270568,11.2309736,+39 0444 429618,,,,ice_cream;regional,2590828194,node
Bar Gelateria,bar,,,VR,,45.3588449,10.8538396,,,,,,2592585249,node
Residenza Vecelli Cavriani,ristorante,"Via Caterina Bon Brenzoni, 1",Mozzecane,VR,37060,45.3090179,10.8170729,+39 347 933 9697,http://ristorazionevecellicavriani.it/,,,regional,2595074323,node
Corte Trebisonda,ristorante,,,VR,,45.3284254,10.8043218,+39 0457940553,http://www.cortetrebisonda.it/?page_id=14,,,,2598222879,node
Ristorante Pizzeria Almarò,ristorante,"Via Custoza, 28",Villafranca di Verona,VR,37069,45.3550441,10.8371145,+39 045 630 3926,,,,pizza,2609386156,node
Skalette Bistrò,caffè,,,VR,,45.4425647,10.9964286,,https://skalettebistro.eatbu.com,,,,2609697290,node
Osteria Locandina Cappello,ristorante,,,VR,,45.44138,10.9987013,,,,,,2609824823,node
Bar Stazione Bonomini,ristorante,"Viale Bonomini, 29",Recoaro Terme,VR,36076,45.6884996,11.2633302,+39 0445 473638,,,,coffee_shop;regional,2615671714,node
La Baracca,bar,,,VR,,45.4270974,10.992723,+39 342 8470197,,,,,2617236126,node
Azienda Agrituristica Corte Vecia,ristorante,"Via Sasse, 20",Verona,VR,37132,45.4133576,11.0531762,+39 045 8830107; +39 3486537008,http://www.agriturismocortevecia.it/,staff@agriturismocortevecia.it,,italian;regional,2620766689,node
Bar - Bruschetteria Faedo,caffè,,,VR,,45.6378955,11.3534326,,,,,,2621304615,node
Bar Pasticceria Gnesato,caffè,"Via Centro, 32a",Verona,VR,37135,45.4115313,10.9877928,+39 045 504475,,pasticceria.gnesato@gmail.com,Mo-Sa 7:00-20:00,,2629162257,node
Usman Kebab,fast_food,"Piazza Libero Vinco, 30",Verona,VR,37131,45.4425536,11.0203551,+39 045 2475630,http://usmankebab.altervista.org/,,,kebab,2629194615,node
Blocco,bar,,,VR,,45.3965874,11.0228081,,,,,,2629495535,node
Osteria Fuori Porta,pub,"Via Girolamo Dai Libri, 26b",Verona,VR,37131,45.4422045,11.0184765,+39 045 522330,,,,,2640944988,node
La lanterna,ristorante,"Via Berto Barbarani, 6",Verona,VR,37123,45.4418158,10.9820337,+39 045 594929,https://lalanternaverona.it,info@lalanternaverona.it,"Mo-Su 12:30-15:00, 19:00-23:00",pizza;italian,2653945762,node
Senza nome,bar,Piazza IV Novembre,Povegliano Veronese,VR,37064,45.3475058,10.8815648,,,,,,2654713540,node
Spizzati,fast_food,,Povegliano veronese,VR,37064,45.3440256,10.8825158,,,,,pizza,2664613760,node
Casa Vinicola Zonin S.p.a.,bar,"Via Borgolecco, 9",Gambellara,VR,36053,45.4610647,11.3365804,+39 0444 640111,http://www.casavinicolazonin.it,,,,2664750110,node
Trattoria Monte San Pietro,ristorante,,,VR,,45.5669156,11.1640513,,,,,,2666934399,node
Pizzeria Da Gianni,ristorante,"Piazza Umberto I, 79",San Giovanni Lupatoto,VR,,45.3817316,11.0466703,+39 045 545128,https://dagiannipizzeria.it/,info@dagiannipizzeria.it,,pizza,2674478516,node
Agriturismo l'Incanto,ristorante,,,VR,,45.6411804,11.1510354,,,,,italian,2676747686,node
Trattoria Ruzzenente,ristorante,"Via Duca degli Abruzzi, 5",Pizzoletta,VR,37069,45.3270557,10.8335109,+39 045 6336530,http://www.trattoriaruzzenente.it/,,,regional,2677601965,node
Jolly,bar,"Via Mantovana, 185l",Verona,VR,37137,45.4022035,10.9238373,,,,,,2678749866,node
Menta e Rosmarino,ristorante,"Via Marin Faliero, 15",Verona,VR,37138,45.4517965,10.9668316,+39 045 564737;+39 349 4932025,http://www.mentaerosmarinocatering.it/,catering.menta.rosmarino@gmail.com,Mo-We 08:00-15:00; Th-Sa 08:00-19:00,,2680248705,node
Al Forte,fast_food,"Via Marin Faliero, 33",Verona,VR,37138,45.4519529,10.9662425,,,,"Tu-Fr 17:30-21:00; Sa,Su 18:00-21:00",pizza,2680248724,node
Senza nome,caffè,,,VR,,45.4515043,10.9712494,,,,,,2681817836,node
Bar-Pizzeria La Rotonda,ristorante,,,VR,,45.5934345,11.0747149,,,,,pizza,2682476458,node
Iris,caffè,"Piazza Vittorio Emanuele, 35",Roverè Veronese,VR,37028,45.5932249,11.065965,,http://enocafe-iris.com,,,,2682476460,node
Senza nome,panetteria,,,VR,,45.593558,11.065834,,,,,,2682476538,node
Hotel Ristorante Centrale,ristorante,,,VR,,45.5935716,11.0657281,,,,,,2682476539,node
Bar Prealpi,bar,,,VR,,45.5935718,11.0655747,,,,,,2682476540,node
Caffè Garibaldi Golin,caffè,"Piazza del Comune, 1",Valdagno,VR,,45.6449615,11.2996769,,,,,,2701653167,node
Cicchetteria Il Vizio,bar,"Via Daniele Manin, 3",Valdagno,VR,36078,45.646011,11.299763,+39 0445 823058,,cicchetteriailvizio19@gmail.com,,,2701653173,node
Senza nome,panetteria,,,VR,,45.6459836,11.3000443,,,,,,2701653226,node
San Matteo Church,ristorante,"Vicolo San Matteo, 4",Verona,VR,37121,45.4418376,10.9938715,+39 045 8004538,https://www.smatteo.it,info@smatteo.it,"Mo-Su 12:00-14:30,18:30-23:59",regional;pizza,2703619489,node
Ci sta,ristorante,"Via Leoni, 4f",Verona,VR,37121,45.4402313,10.9996099,,,,,pizza,2707128457,node
Pistacchio,caffè,,,VR,,45.4400782,11.0001867,,,,,,2707128481,node
Bar Blondy's,bar,"Via Mantovana, 185n",Verona,VR,37137,45.4003335,10.9212248,,,,,,2710784735,node
Caffetteria Pasticceria Manzatti,bar,"Via Cavour, 137",Dossobuono,VR,37062,45.3984574,10.9166671,,,pasticceriamanzatti@alice.it,,,2712115733,node
Terrazza Bar Al Ponte,ristorante,,,VR,,45.4472143,10.9996886,,http://www.terrazzabaralponte.eu/,,,italian,2720002053,node
IncantaMonte,ristorante,"Via Maddalena, 20",Monte di Malo,VR,36030,45.6512096,11.3635182,,,,,italian;pizza;regional,2723275717,node
Ristorante Bar Graziano e Loretta,ristorante,"Via Caterina Bon Brenzoni, 66",Mozzecane,VR,37060,45.3112862,10.8188835,+39 045 793 0253,https://www.dagrazianoeloretta.com/,,,regional,2727197935,node
Garage Cafè,pub,"Via Caterina Bon Brenzoni, 50",Mozzecane,VR,37060,45.3105953,10.818266,+39 342 160 8558,,,Mo-We 07:00-01:00;Th off;We-Su 07:00-02:00,,2727225570,node
Spizzati,ristorante,"Via Antonio Murari, 95",Valeggio sul Mincio,VR,37067,45.3574094,10.7348652,+39 3453139368,http://www.spizzati.it/host/,,Mo-Su 17:00-22:00,pizza,2741747263,node
Agriturismo Le Bianchette,ristorante,"Stradella Bianchette, 6",Custoza,VR,37066,45.3741946,10.8108922,+39 045 516373,https://www.lebianchette.it/,,"Fr,Sa 19:30-23:30; Su 12:00-17:00",regional,2747499246,node
Ristorante al Tesoro,ristorante,"via Fiorita, 1",Corrubbio,VR,37020,45.5978539,10.9563777,,,,,italian,2750087524,node
Ristoro Martin Pescatore,ristorante,,,VR,,45.3537009,10.9402618,,,,,,2758730865,node
Taverna Cansignorio,pub,,,VR,,45.4457935,11.0163076,,,,,,2759110584,node
Bar Stoppa,bar,,,VR,,45.4489755,11.0296785,,,,,,2759136114,node
Bar Tiffany,bar,,,VR,,45.4493908,11.0201194,,,,,,2760123705,node
Panificio Forneria Tezza,panetteria,,,VR,,45.4482675,11.0201864,,,,,,2760123706,node
Pizzeria Putapariò,ristorante,,,VR,,45.4494643,11.0201087,,,,,,2760123707,node
Agriturismo Principe Amedeo,ristorante,"Strada Staffalo, 15",Sommacampagna,VR,,45.391566,10.8019358,+39 045 2429197,https://www.agriturismoprincipeamedeo.it/,,,regional,2766326415,node
Senza nome,bar,,,VR,,45.5846303,11.0781026,,,,,,2767276020,node
Senza nome,panetteria,Via Europa,Nogarole Rocca,VR,37060,45.2697407,10.893022,,,,,,2773924466,node
Bar Sport,bar,Via Europa,Nogarole Rocca,VR,37060,45.2698673,10.892761,,,,,,2773925330,node
Oasi,ristorante,Via Vittorio Veneto,Nogarole Rocca,VR,37060,45.2724164,10.8929926,,,,,pizza,2773927982,node
Oasi,bar,Via Vittorio Veneto,Nogarole Rocca,VR,37060,45.272423,10.8929223,,,,,,2773929608,node
Panificio Deganello,panetteria,Via Guglielmo Marconi,Nogarole Rocca,VR,37060,45.2845189,10.8683004,,,,,,2773960749,node
Da Franco,ristorante,"Via San Leonardo, 11",Nogarole Rocca,VR,37060,45.2805684,10.8780408,,,,,regional,2773962381,node
Da Ferruccio,ristorante,"Via 9 Maggio, 2",Nogarole Rocca,VR,37060,45.2843202,10.8684259,,https://www.facebook.com/pages/Trattoria-Da-Ferruccio/453171308084599,,"Mo-Fr 12:00-14:00,19:00-21:00; Sa 19:00-21:00; PH off",regional,2773968914,node
Carambas,bar,Via 9 Maggio,Nogarole Rocca,VR,37060,45.28265,10.8724979,,,,,,2773990826,node
Senza nome,bar,Via Augusto de Mori,Nogarole Rocca,VR,37060,45.2719656,10.8948024,,,,,,2774001014,node
Antica Trattoria da Costa,ristorante,"Via Guglielmo Marconi, 9",Tormine,VR,37122,45.2877378,10.8227633,,,,,regional,2776925990,node
Senza nome,caffè,,,VR,,45.4212946,11.2875732,,,,,,2777143909,node
La vineria vini sfusi in bottiglia,ristorante,"Via Caterina Bon Brenzoni, 70a",Mozzecane,VR,37060,45.3114279,10.819018,,,,,,2777268926,node
Agriturismo al Ranch,ristorante,"Contrada Bernardi, 10",,VR,,45.679192,11.3142287,+390445412387;+39340 9446756,,agriturismo.ranch@libero.it,,,2782885450,node
Pizzeria al taglio Lobbia (S.N.C.),ristorante,,,VR,,45.444083,10.943647,,,,,pizza,2783620677,node
Senza nome,ristorante,,,VR,,45.425764,10.7161869,,,,,,2789400961,node
Pizzeria Ristorant Rosati,ristorante,"Via Caterina Bon Brenzoni, 20",Mozzecane,VR,37060,45.3094309,10.8177722,,,,,pizza,2791541894,node
Lo Sfizio pizzeria da asporto,fast_food,"Viale della Repubblica, 8",Mozzecane,VR,37060,45.3069357,10.8161637,+39 045 7930582,,,,pizza,2792047824,node
Maracajbo,bar,"Viale della Repubblica, 13",Mozzecane,VR,37060,45.3067422,10.8166856,,,,,,2792047830,node
Pizzeria Due Forni,ristorante,"Corso Giuseppe Garibaldi, 40a",Villafranca di Verona,VR,37069,45.3504661,10.8472443,+39 045 7903029,,,Mo-Su 17:00-22:00,pizza,2793594773,node
Classique Cafè Restaurant,ristorante,"Via Albarello, 33",Lazise,VR,37017,45.5062917,10.7309982,+39 045 7580270,,,,,2796391644,node
Ai Tre Volti,ristorante,"Via Angelo Messedaglia, 215",Villafranca di Verona,VR,37069,45.3490513,10.8464604,+39 045 7902400,,,,regional,2802288376,node
Bar Trattoria Corte Girlanda,ristorante,Strada Bresciana,Verona,VR,37139,45.4466813,10.8988063,,http://www.cortegirlanda.com/,,,,2809318928,node
Bar Brothers,caffè,,,VR,,45.4564012,10.9465149,,,,Mo-Su 06:30-02:00,,2812762025,node
La bottega della pizza - Bar enoteca,ristorante,"Via Roma, 7",Mozzecane,VR,37060,45.3041697,10.8137891,,,,,pizza,2825745989,node
"Pizza al taglio ""Doppio Zero""",ristorante,"Via Caterina Bon Brenzoni, 21a",Mozzecane,VR,37060,45.3099154,10.8177578,+39 3466524753,https://www.gruppodemar.it/,info@gruppodemar.it,Tu-Su 17:00-00:00,pizza,2827174364,node
Caffe Nolita,caffè,"Via dei Partigiani, 1",Valeggio sul Mincio,VR,,45.3469564,10.7373869,,,,,regional,2832369037,node
Gelateria Frullateria K2,caffè,"Via Giuseppe Rensi, 13",Villafranca di Verona,VR,37069,45.349923,10.8438767,+39 045 6303848,,,,ice_cream,2832393219,node
Bar Pasticceria Colombo,bar,"Corso Venezia, 12",San Bonifacio,VR,37047,45.3961198,11.2699451,+39 342 5364670,,,,,2833310556,node
Senza nome,caffè,,,VR,,45.4426004,10.9783659,,,,,,2841703909,node
Pasticceria Dalla Mura,bar,"Corso Venezia, 41",San Bonifacio,VR,37047,45.3975438,11.2712743,,,,"Tu-Su 07:00-13:00,15:00-19:00",,2848079943,node
Bar Country,bar,"Via Trentino, 1",Lugagnano di Sona,VR,37060,45.4396536,10.8642721,,,,,,2859546378,node
365 Easy Restaurant,ristorante,"Via Sile, 40",Mote di Malo,VR,,45.6542625,11.3940087,,,,,italian,2884340501,node
Senza nome,caffè,,,VR,,45.4476818,10.959832,,,,,,2884841311,node
Senza nome,bar,,,VR,,45.6768266,11.27084,,,,,,2898102708,node
Senza nome,bar,,,VR,,45.6763731,11.2705127,,,,,,2898111066,node
Senza nome,panetteria,,,VR,,45.6758596,11.2708346,,,,,,2898111067,node
Senza nome,bar,,,VR,,45.6763468,11.2708829,,,,,,2898111074,node
Angolo Della Pizza,fast_food,"Viale Sicilia, 47",Verona,VR,,45.4466671,10.9616391,+39 045 561660,,,"We-Mo 11:00-01:30,17:00-09:00",pizza,2901010533,node
Central Bar,caffè,"Via Gottardo Aldegheri, 22",Lazise,VR,37017,45.5057369,10.7325557,,,,,,2914319254,node
Ristaurante al Castello,ristorante,,,VR,,45.5042177,10.7330339,,,,"Mo-Su,PH 18:00-24:00",pizza,2914319256,node
Trattoria Rampon,ristorante,"Via Emilia Casara, 9",Monte di Malo,VR,36030,45.6597637,11.362849,+39 0445 602202,,,,,2925331690,node
Il Cenacolo,ristorante,"Via Teatro Filarmonico, 10",Verona,VR,37121,45.4391082,10.991162,+39 045 592288,https://www.ristoranteilcenacolo.it/,,Mo-Su 19:00-23:00,italian,2930629356,node
Antico Caffe Dante,ristorante,"Piazza dei Signori, 2",,VR,37121,45.4435421,10.9977804,+39 045 8000083,https://www.caffedante.it/,info@caffedante.it,"Mo-Su 10:00-16:00,19:00-24:00",italian,2930629357,node
La Cantina del 15,ristorante,"Corso Castelvecchio, 15",Verona,VR,37121,45.4390555,10.9875826,,,,,italian,2930629358,node
Pizzeria Capri,ristorante,"Via San Cristoforo, 10",Valdagno,VR,,45.6415098,11.3033846,,,,,pizza,2936377024,node
Senza nome,ristorante,,,VR,,45.4954196,10.8001657,,,,,italian,2956128066,node
Senza nome,bar,,,VR,,45.495437,10.7999647,,,,,,2956128067,node
Senza nome,bar,,,VR,,45.5059667,10.7348208,,,,,,2956128069,node
Caffè San Zeno,caffè,"Piazza Corrubbio, 33c",,VR,,45.4413172,10.9793463,,,,,,2956134521,node
Panificio Benetton,panetteria,"Via Roma, 66",San Bonifacio,VR,37047,45.3983856,11.268348,+39 045 6102017,,,Mo-Sa 07:30-19:30,,2961252203,node
Asso de Cope,ristorante,"Via Rinaldo da Villafranca, 39;41",Villafranca di Verona,VR,37069,45.3490927,10.8443287,,,,,pizza,2962843945,node
Senza nome,pub,,,VR,,45.3493215,10.8444645,,,,,,2962843946,node
Brasil - Bar birreria tosteria,pub,"Corso Giuseppe Garibaldi, 8",Villafranca di Verona,VR,37069,45.351397,10.844916,+39 045 7900021,,,,,2962843948,node
Molinari - Pasticceria bar gelateria,bar,"Corso Vittorio Emanuele II, 246",Villafranca di Verona,VR,37069,45.3514668,10.843781,+39 045 7901852,,,,,2962843950,node
Fantoni Caffè pasticceria 1842,bar,"Corso Vittorio Emanuele II, 141",Villafranca di Verona,VR,37069,45.3511077,10.843929,+39 045 6302084,https://www.localistorici.it/it/Schede/view/slug/caffe-pasticceria-fantoni/tipo/locali-storici,,,,2962843951,node
Ristorante La Ginestra,ristorante,"Corso Milano, 101",Verona,VR,37138,45.4434585,10.9688369,+39 045 562449; +39 045 8101444,https://www.leopardi.vr.it/index.cfm/it/ristorante-ginestra-verona/,laginestra@leopardi.vr.it,,,2965718021,node
Caffè Roma 2000,caffè,,,VR,,45.5886134,11.3652246,,,,,,2966615519,node
Senza nome,bar,,,VR,,45.5889518,11.3655243,,,,,,2968471240,node
Senza nome,bar,,,VR,,45.5652348,11.3746095,,,,,,2968976279,node
Bar Hellas,caffè,,,VR,,45.4428229,10.9629334,,,,,,2972635123,node
Assaporito,ristorante,"Viale del Lavoro, 32a",Verona,VR,37135,45.4138645,10.9788092,,https://www.assaporito.com/trattoria-pizzeria/,,,pizza,2975421141,node
L'essenziale,caffè,"Via Gian Matteo Giberti, 20",Verona,VR,,45.4341488,10.986169,,,,Mo-Fr 07:00-15:30; Sa 07:30-15:30,,2979478946,node
Pergolo,ristorante,"Calle Prima, 8",,VR,,45.50565,10.7323991,+39 340 743 8388,https://www.facebook.com/pages/category/Wine-Bar/Pergolo-100717538356155/,,,italian;wine,2997218933,node
Pizzeria Pan Per Focaccia,ristorante,"Via Francesco Feliciano Scolari, 26",Lazise,VR,37017,45.5061082,10.7333637,,,,,,3011958035,node
Ristorante Antico ristoro,ristorante,"Via Valle Molini, 5",Custoza,VR,37060,45.3798634,10.7844142,,,,,,3014019252,node
Snupy Bar,bar,,,VR,,45.411371,10.9957433,,,,,,3017967488,node
Signorvino,ristorante,"Corso Porta Nuova, 2",Verona,VR,37122,45.4379781,10.9912504,+39 045 8009031,https://www.signorvino.com/it/negozi/verona,verona.portanuova@signorvino.it,,,3024333379,node
G & G,bar,"Via Fama, 6b",Verona,VR,37121,45.4435729,10.9952509,,,,,,3032414337,node
American Gigolo - Birreria Pub,pub,,,VR,,45.4479554,10.8758954,,,,,,3035462812,node
Senza nome,bar,,,VR,,45.4483987,10.8679384,,,,,,3035471259,node
Lao di Fang - ristorante cinese,ristorante,,,VR,,45.4484731,10.8682212,,,,,chinese,3035473924,node
Senza nome,ristorante,,,VR,,45.3613263,10.798348,,,,,,3035617184,node
El Pirlar,ristorante,,,VR,,45.3308762,10.8240744,,,,,regional,3035631026,node
Cappa Cafè,caffè,"Piazzetta Brà Molinari, 1",Verona,VR,37121,45.4465577,11.0000962,,,,,,3039205214,node
Ristorante Sant'Eufemia,ristorante,"Via Francesco Emilei, 21",Verona,VR,37121,45.4433532,10.9944104,+39 045 8006865,http://www.s.eufemia.it/,,"Tu-Sa 12:30-14:30,19:00-22:30; Su 12:30-15:00",regional,3040154906,node
Café Martél,caffè,"Via Anfiteatro, 12",Verona,VR,37121,45.4398316,10.9951326,+39 045 2210048,https://www.cafemartel.com,,Mo-Th 07:30-19:30; Fr 07:30-20:30; Sa 08:30-20:30; Su 08:30-20:00,,3046545567,node
Bar Galleria,caffè,Via Dietro Anfiteatro,,VR,,45.439613,10.9947506,,,,,,3046545576,node
Claddagh irish pub,pub,,,VR,,45.4714917,10.8457542,,,,,,3055004788,node
Yan,ristorante,,,VR,,45.4390536,10.990946,,,,,chinese,3059176718,node
Arena Pizzeria Kebab,fast_food,,,VR,,45.4397102,10.9924554,+39 045 8320765,,arenapizzeria2019@gmail.com,,kebab;pizza,3059200653,node
Tigella Bella,ristorante,"Via Sottoriva, 24",Verona,VR,37121,45.4443315,11.0006213,+39 045 8013098; +39 346 6869387,,,"Tu-Su 12:30-14:30,18:00-23:00",,3061670614,node
Osteria Nori,ristorante,"Via Ponte Nuovo, 9",Verona,VR,37121,45.4434837,11.0007229,,,,,regional,3061670615,node
Trattoria Vecio Mulin,ristorante,,,VR,,45.4449375,11.0008113,,,,"Mo-Su 19:00-22:30+, Sa,Su 12:00-14:30",,3061670616,node
Focacceria Ponte Pietra,caffè,,,VR,,45.448343,11.0005077,,,,,,3061873316,node
Macafame,ristorante,,,VR,,45.4437732,10.9977511,,,,,italian,3079973944,node
El Bareto,bar,"Piazza della Vittoria, 4",Sona,VR,37060,45.4334532,10.8328328,+390456081015,,,,,3107463535,node
San Quirico,ristorante,"Via Gaetano Donizetti, 16",Sona,VR,37060,45.4375854,10.8241985,+39 045 6082357,https://www.facebook.com/pizzeriasanquirico,,,pizza,3107463537,node
Pizzeria Amabile,ristorante,,,VR,,45.4431266,10.819974,,,,,pizza,3107463538,node
Pizzeria dai Beghini,ristorante,"Via Vallevecchia, 2",Sona,VR,37060,45.4328972,10.8324487,+39 0456081216,,,,pizza,3107463539,node
Osteria a la Carega,bar,"Via Cadrega, 8",Verona,VR,,45.4451823,10.9945604,+39 045 806 9248,http://www.osterialacarega.com/,,,,3112482052,node
la Piazzetta,caffè,"Piazza Giuseppe Garibaldi, 9",,VR,37010,45.6116672,10.7023441,+39 045 722 5470,,,,snackbar,3114360293,node
Edelweiss,ristorante,"Via dei Narcisi, 1",,VR,37010,45.6731492,10.7802088,+39 045 6289060,https://edelweiss-hotel.it/,info@edelweiss-hotel.it,,italian,3114360296,node
Bar da Piero,pub,"Corso Milano, 34",Verona,VR,37138,45.4437008,10.9694205,+39 045 565116,,,"Mo-Fr 10:00-15:00,18:00-26:00,Sa 18:00-26:00",,3116772980,node
Pizzeria bruschetteria Jolly,ristorante,"Via Pecori Giraldi, 18",San Vito di Leguzzano,VR,,45.6831951,11.3765895,+39 0445 605802,,,May-Sep: Tu-Su 17:00-22:00; Oct-Apr: Tu-Su 17:00-21:30,,3127349429,node
Bar -Trattoria Pedrocchi,ristorante,,,VR,,45.6351749,11.3565614,,,,,,3145985215,node
Ristorante Tamburino Sardo,ristorante,,,VR,,45.3784775,10.8149127,+39 045 516217,https://www.tamburinosardo.it/,info@tamburinosardo.it,,regional,3150309314,node
Caffè Manzoni,caffè,"Viale Alessandro Manzoni, 2b",Verona,VR,37138,45.443366,10.9699057,,,,,,3157621426,node
Al Lumicino,ristorante,"Via Gabbia, 8",Isola della Scala,VR,,45.2437462,11.0518105,+39 329 4148411,http://www.lumicino.it/,,,italian,3161417352,node
Kulmbacher Bier-Haus,pub,"Via Guglielmo Marconi, 72",Verona,VR,37122,45.4355133,10.9852526,+39 045 597517,https://www.kbh.it/,,"Mo-Su 12:00-14:30,19:00-24:00; Sa 19:00-24:00",,3171832294,node
Osteria S'ciavinaro,bar,Via Eugenio Pertini,Zimella,VR,37040,45.377558,11.3375745,,,,,,3183676832,node
Bengio,ristorante,"Via Gardesana, 5",Lazise,VR,37017,45.4993696,10.7370018,,,,,italian;pizza,3191609667,node
Cristina,ristorante,"Gardesana Orientale, 96",Lazise,VR,37017,45.4995724,10.7369634,,,,,italian,3191609668,node
Gem's Brew Pub,ristorante,"Gardesana Orientale, 135",,VR,,45.494638,10.739181,+39 045 6471144,,,,barbecue,3191609699,node
eni,caffè,,,VR,,45.4962823,10.7387815,,,,,,3191609700,node
L'Unico,ristorante,,,VR,,45.5355357,10.7280452,0457210403,,,,italian,3191746362,node
Gio,ristorante,,,VR,,45.5432533,10.7245972,,,,,italian,3192880821,node
Bar Ellis,bar,,,VR,,45.6309889,11.3731612,,,,,,3195745569,node
Panificio Barbieri,panetteria,,,VR,,45.4346996,10.9864459,,,,,,3228348066,node
I Remenghi,ristorante,,,VR,,45.5524885,11.0858469,,,,"Mo 12:00-14:00,19:00-21:00; Tu-Th off; Sa,Su 12:00-14:00,19:00-21:00",,3229482039,node
Ca' del Diaolo,ristorante,,,VR,,45.5847252,11.1526878,,,,,,3229627001,node
Anselmi,ristorante,"Piazza delle Erbe, 22",,VR,,45.4431628,10.9974555,,,,,,3229682880,node
Agriturismo La Perlara,ristorante,,,VR,,45.5024626,11.0814496,,,,,,3230938290,node
Osteria Al Parigino,ristorante,,,VR,,45.500045,11.0776409,,,,,,3230938291,node
Senza nome,ristorante,,,VR,,45.3963035,10.9737156,,,,,,3231403058,node
Trattoria Osteria del popolo,ristorante,"Via Torrente Vecchio, 77",,VR,,45.4724146,10.9887737,+39 045 570 5770,,,,italian;local,3232887905,node
Osteria a la Carega,ristorante,"Via Cadrega, 8",Verona,VR,37121,45.4451743,10.9945003,,,,,,3235913552,node
Trattoria Cappuccini,ristorante,"Via Franco Faccio, 26",Verona,VR,37122,45.428165,10.9946268,+39 045 8032653,http://www.trattoriacappuccini.it/,,,,3237996778,node
Ristorante Antica Torretta,ristorante,"Piazza Broilo, 1",Verona,VR,37121,45.4474123,10.9990128,+39 045 8015292,,info@ristoranteanticatorretta.com,,italian,3267615924,node
Panificio Bertassello,panetteria,"Via Don Giacomo Trevisani, 92",Verona,VR,37139,45.4394268,10.9480877,,,,,,3270635216,node
Boscaini,panetteria,"Via Beniamino Romagnoli, 20",Verona,VR,37139,45.4390376,10.9453072,+39 346 0049215,,,Mo-Sa 07:00-13:00,,3270635217,node
La bottega del caffè Dersut,caffè,,,VR,,45.4386777,10.9460836,,,,,,3270635221,node
Piazzetta Cafè,caffè,,,VR,,45.4388958,10.9448429,,,,,,3270635227,node
Senza nome,caffè,,,VR,,45.4389981,10.9446345,,,,,,3270635244,node
Osteria il borgo dei templari,ristorante,"Via Michelangelo Buanarroti, 24",Borghetto,VR,37067,45.3535755,10.7232168,+39 045 7952222,http://www.osteriailborgodeitemplari.it/,,,regional,3279218627,node
Pizzeria Sorriso,ristorante,"Via Beniamino Romagnoli, 37",Verona,VR,37139,45.4389101,10.9423734,,,,"Tu-Su 18:00-24:00, Tu-Fr,Su 08:30-14:00",pizza,3283484394,node
Senza nome,caffè,,,VR,,45.441646,10.9412471,,,,,,3283521886,node
Vespizza,fast_food,,,VR,,45.4443154,10.957283,,,,,pizza,3300476410,node
Trattoria Alberti,ristorante,Piazza Vittoria,Velo Veronese,VR,37030,45.6055849,11.095702,,,,,regional,3323929696,node
Pizzeria Lessinia,ristorante,,,VR,,45.6056187,11.0960724,,,,,pizza,3323929711,node
Pizzeria Da Nello,ristorante,"Viale Vittorio Bachelet, 11",,VR,,45.4632652,10.8653176,+39 045 7157188,,,,pizza,3324099497,node
Caffè Visconti,caffè,"Via Raffaello Sanzio, 19",Borghetto di Valeggio sul Mincio,VR,37067,45.3537359,10.724794,+39 339 247 7547,,,,,3328238491,node
La fiaba italian bar 1988,pub,"Via Michelangelo Buanarroti, 38",,VR,,45.3537189,10.7226804,+39 045 795 0055,,,,,3328250482,node
Pizza d'asporto Happy pizza,ristorante,"Via San Pietro, 23",Valeggio sul Mincio,VR,37067,45.3566702,10.7400938,+39 0457950565,,,,pizza,3328276707,node
Senza nome,caffè,,,VR,,45.4442126,10.9455459,,,,,,3343880327,node
Pizzeria Ristorante Dell'Epoca,ristorante,,,VR,,45.4078554,10.9993151,,,,,pizza,3367701899,node
Bar Meeting,caffè,,,VR,,45.4343633,11.0426777,,,,,,3376677145,node
Bordovasca,ristorante,"Viale Olimpia, 1",Villafranca di Verona,VR,37069,45.3515613,10.8289125,,,,Mo-Sa 09:00-19:30; Su 10:00-19:30,regional,3379652272,node
Bar Ristoro Agricenter,caffè,,,VR,,45.4173983,10.9802124,,,,,,3390661779,node
Bar Pericoti,bar,,,VR,,45.471494,10.9743366,,,,,,3398143668,node
Alla Fedeltà,ristorante,"Via Rodi, 68",Verona,VR,37139,45.4430569,10.9386598,+39 045 8902423,,,,regional,3398143670,node
Pepenero,ristorante,"Via Beniamino Romagnoli, 52",,VR,,45.439004,10.9442724,,,,,pizza,3410806739,node
Bar Rosso,caffè,,,VR,,45.4486501,10.9871941,,,,"Mo-Fr 07:30-21:00; Sa,Su 07:30-22:00",,3415525246,node
Pizza & Cafè,ristorante,,,VR,,45.4408029,10.9968493,+39 045 590321,,,07:00-22:30,,3415556627,node
La Fontanina,ristorante,,,VR,,45.4492157,11.0006247,,,,,,3419323801,node
Bar Pasticceria Castelvecchio,caffè,"Corso Castelvecchio, 21",Verona,VR,37121,45.4390236,10.9874035,+39 045 595817,,,,,3426431393,node
Locanda Castelvecchio,ristorante,"Corso Castelvecchio, 21a",Verona,VR,37121,45.4389894,10.9873216,,,,"We 17:00-24:00; Th-Su 09:00-15:30,18:00-24:00",,3426431397,node
Osteria alla busa,ristorante,"Piazza Pozza, 19",Verona,VR,37123,45.4413588,10.9775984,,,,,,3426431398,node
San Zen che ride,bar,,,VR,,45.4411963,10.9775261,,,,,,3426431399,node
La Negra Tomasa,ristorante,"Piazza Villafranchetta, 22",,VR,37069,45.3537241,10.8445824,+39 045 6337149;+39 345 5901634,,lanegratomasa71@yahoo.it,,pizza,3430079701,node
Bar Sport,caffè,"Via Guglielmo Marconi, 27",Castelnuovo del Garda,VR,,45.4398997,10.7638838,,,,,,3437517454,node
Senza nome,panetteria,,,VR,,45.4398324,10.7641904,,,,,,3437517456,node
Ristorante Pizzeria Grotta Azzurra,ristorante,"Via Scuderlando, 87",Verona,VR,37135,45.417593,10.9858762,+39 045 8104134,,,,,3438572784,node
Le Spighe,ristorante,"Strada Tononi, 55",Monzambano,VR,46040,45.3654988,10.7039555,,https://www.camper-parking.it/,,,regional,3441524830,node
La Molinara,ristorante,"Piazzetta Ottolini, 4",,VR,,45.4447629,10.9941807,,,,,,3446476553,node
C'era una volta,caffè,,,VR,,45.4414715,10.9950322,,,,,,3446476556,node
Gran Caffè Excelsior,ristorante,,,VR,,45.442316,10.9969872,,,,,,3446476723,node
Osteria le Vecete,ristorante,"Via Pellicciai, 32a",Verona,VR,37121,45.4421233,10.9956148,,,,,,3446476726,node
Bar Santa Anastasia,bar,,,VR,,45.4448947,10.999156,,,,,,3446477587,node
Piscaria del Bugiardo,ristorante,,,VR,,45.4448029,10.9992185,,https://piscariadelbugiardo.it,,,fish,3446478890,node
Osteria Ponte di Pietra,ristorante,,,VR,,45.447374,10.9995787,,,,"12:00-15:00,19:30-23:00",,3446479385,node
