nome,tipo,indirizzo_stradale,comune,provincia,cap,lat,lon
"Malga Lessinia","restaurant","","Erbezzo","Verona","37020","45.6963188","11.0079324"
"Ristorante Albergo Alle Fasse","restaurant","Via Fasse","Castelletto","Verona","37010","45.6650701","10.7478729"
"Ca' Bottona","restaurant","Via Primo Maggio","Albarè","Verona","37010","45.5849861","10.7505201"
"Rifugio Revolto","restaurant","286","Selva di Progno","Verona","37030","45.6954834","11.1189053"
"La Barcaccia","restaurant","Via General Bonomi","Peschiera del Garda","Verona","37019","45.4392892","10.6987733"
"Pizzeria dal Tato","restaurant","Via Europa Unita","Bardolino","Verona","37011","45.5513099","10.7239929"
"Albergo Panoramica","restaurant","Via Costabella","Cisano","Verona","37011","45.5276461","10.7344649"
"","restaurant","Via Balladoro","Lazise","Verona","37017","45.5087985","10.7344909"
"Villa Velar - Ristorante & Pizza Lazise di Verona specialità Pesce di Mare","restaurant","Via Alberto della Scala","Lazise","Verona","37017","45.5000515","10.7480341"
"La Plume","restaurant","Via Risorgimento","Peschiera del Garda","Verona","37019","45.4400302","10.6898212"
"Albergo Belvedere","restaurant","Via Don Cesare Scala","Rivalta","Verona","37020","45.6583305","10.8940317"
"Agriturismo Le Sigalette","restaurant","Via del Garda","Valeggio sul Mincio","Verona","37067","45.4035526","10.7207617"
"Sosta & Gusta","restaurant","Via Venezia","Peschiera del Garda","Verona","37019","45.4422133","10.703394"
"Rifugio Branchetto","restaurant","Strada Provinciale 6","Bosco Chiesanuova","Verona","37021","45.6751415","11.0629099"
"Baita Maso","restaurant","Via Castelberto","Erbezzo","Verona","37020","45.6588719","11.0056141"
"Rifugio Dardo","restaurant","Strada Provinciale 14 dell'Alta Valpantena","Erbezzo","Verona","37020","45.6594686","10.9941539"
"Zoccante","restaurant","Via Valecco","Bolca","Verona","37030","45.5918724","11.2212938"
"La Collina","restaurant","SP36","Badia Calavena","Verona","37030","45.5607311","11.1833927"
"Oishii","restaurant","Corso Milano","Verona","Verona","37138","45.4441566","10.9670255"
"Pineta","restaurant","Via Gianattilio Dalla Bona","Verona","Verona","37123","45.4316336","10.9787285"
"Pizzeria Grotta Azzurra 2","restaurant","Largo Perlar","Verona","Verona","37135","45.4073394","10.9768137"
"Mensa Universitaria ESU - San Francesco","restaurant","Vicolo Cieco Dietro San Francesco","Verona","Verona","37129","45.4359208","11.0031262"
"Ristorante Catena sas di Zampieri Laura & C","restaurant","Viale Europa","Grezzana","Verona","37023","45.52395","11.0211143"
"The Brothers","restaurant","Viale Olimpia","Grezzana","Verona","37023","45.5232232","11.0174314"
"Ristorante Pizzeria Nuova Speranza","restaurant","Via Gardesane","Verona","Verona","37139","45.4507955","10.9332002"
"Dolce Gusto","restaurant","Via Sottomonte","Verona","Verona","37124","45.4731332","10.9526686"
"Park Hotel Elefante","restaurant","Strada Bresciana","Verona","Verona","37139","45.4463953","10.9272593"
"Locanda al Confin e Osteria le Piere","restaurant","Via Quercia","Verona","Verona","37141","45.5360552","11.0697284"
"Osteria Girasole Ristorante","restaurant","Via Prealpi","Grezzana","Verona","37023","45.5465238","11.0031595"
"ITaste","restaurant","Via Tavigliana","Grezzana","Verona","37023","45.5293281","11.0127385"
"","restaurant","Via Monte Rosa","Verona","Verona","37132","45.4268106","11.0574785"
"Agriturismo Altobello","restaurant","Via Volte Maso","Verona","Verona","37125","45.4967342","10.9833701"
"Trattoria dalla Valentina","restaurant","Via Cancello","Verona","Verona","37141","45.51689","11.0876288"
"L'Aquila","restaurant","Via Fenilon","Verona","Verona","37137","45.4235188","10.9481937"
"Osteria Verona Antica","restaurant","Via Sottoriva","Verona","Verona","37121","45.4437969","11.0006699"
"Gallo's","restaurant","Via Piave","Villafranca di Verona","Verona","37069","45.3302192","10.8350687"
"Locanda del Viandante","restaurant","Via Mantova","Villafranca di Verona","Verona","37069","45.3476562","10.8410116"
"Capitel Brinchi","restaurant","Via del Capitello","Villafranca di Verona","Verona","37069","45.3769487","10.8815136"
"Cielo Azzurro","restaurant","Via Caluri","Villafranca di Verona","Verona","37062","45.3808011","10.8777514"
"Al Parco Pizza & Cucina","restaurant","Viale Verona","Pescantina","Verona","37026","45.4848762","10.892855"
"Ristorante Locanda Bordin","restaurant","Via degli Scaligeri","Bussolengo","Verona","37012","45.4600828","10.8569838"
"Ristorante Pizzeria Alla passeggiata","restaurant","Via degli Scaligeri","Bussolengo","Verona","37012","45.4670769","10.8508903"
"Pizzeria da Leo","restaurant","Via Carlo Montanari","Quistello","Verona","37060","45.3080014","10.8163294"
"Bar Pizzeria L'ancora","restaurant","Via Carlo Poma","Villafranca di Verona","Verona","37069","45.3292164","10.7893936"
"Simba Restaurant","restaurant","Autostrada del Brennero","Bussolengo","Verona","37012","45.4799359","10.7986099"
"El Carnicero","restaurant","","Bussolengo","Verona","37012","45.4846572","10.8146093"
"La Fontana ai Ciliegi","restaurant","Via Valpolicella","San Pietro in Cariano","Verona","37029","45.5122986","10.8980472"
"La Cascina","restaurant","Via Festara","Bussolengo","Verona","37012","45.4437418","10.8664851"
"Giardino Dei Sapori","restaurant","Via Molinara","Bussolengo","Verona","37012","45.4464036","10.8501398"
"Bottega de Corgnan","restaurant","Via Corgnan","Sant'Ambrogio di Valpolicella","Verona","37015","45.524159","10.8408792"
"Albergo trattoria Croce d'oro","restaurant","Via Valentini","Volargne","Verona","37020","45.5439684","10.821522"
"Bar Trattoria Ca´Verde","restaurant","Via Case Sparse Grolette","Sant'Ambrogio di Valpolicella","Verona","37015","45.5359034","10.8294944"
"Ristorante Casale Spighetta","restaurant","Via Spighetta","Negrar di Valpolicella","Verona","37024","45.5626723","10.9423148"
"pizzeria la Fenice","restaurant","Via Aleardo Aleardi","Negrar di Valpolicella","Verona","37024","45.5767994","10.9518729"
"Pizzeria La Lumiere","restaurant","Via Ponzeio","Negrar di Valpolicella","Verona","37024","45.5763259","10.9490509"
"Ristorante Valpolicella da Luciano","restaurant","Via Malanchini","Negrar di Valpolicella","Verona","37024","45.5526636","10.9364583"
"Agriturismo Camposilvano","restaurant","Via Camposilvano","Velo Veronese","Verona","37030","45.6274586","11.089505"
"Colle San Felice","restaurant","Strada Castellana","Verona","Verona","37128","45.4582776","11.0100693"
"Antica locanda Grotta","restaurant","Via Santa Lucia","Valeggio sul Mincio","Verona","37067","45.3841392","10.7669975"
"Ristorante Santa Lucia","restaurant","Vicolo dei Colli","Valeggio sul Mincio","Verona","37067","45.3837654","10.7687662"
"Agriturismo La Palazzina","restaurant","Via Palazzina","Isola della Scala","Verona","37063","45.2597153","10.9957474"
"","restaurant","Via Ca' Magre","Isola della Scala","Verona","37063","45.2590858","11.0036708"
"L'Artigliere","restaurant","Via Boschi","Isola della Scala","Verona","37063","45.2902199","11.0185155"
"La Capannina","restaurant","3","Malcesine","Verona","37018","45.7721823","10.8650536"
"Baita Genzianella","restaurant","","Ferrara di Monte Baldo","Verona","37020","45.7057124","10.859038"
"Rifugio Novezzina","restaurant","Strada Provinciale Monte Baldo","Ferrara di Monte Baldo","Verona","37020","45.6991551","10.8585515"
"","restaurant","Via Madonna","Bovolone","Verona","37051","45.2704806","11.1012035"
"","restaurant","Via del Ciclamino","Bovolone","Verona","37051","45.2708046","11.1011766"
"","restaurant","Via Monte Altissimo","Cerea","Verona","37053","45.1881133","11.2222424"
"","restaurant","Via Vittorio Veneto","Cerea","Verona","37053","45.1878801","11.2221444"
"Bar Trattoria Da Carlo","restaurant","Via San Zeno","Cerea","Verona","37053","45.2067232","11.2009302"
"","restaurant","Via Dossi","Venera","Verona","37058","45.1797919","11.1706058"
"Ristorante da Sandro","restaurant","Percorso La Verbena","Legnago","Verona","37045","45.1964339","11.3078666"
"La Compagnia","restaurant","Via Cesare Battisti","Fosse","Verona","37020","45.6455761","10.936448"
"","restaurant","Via Diga","Zevio","Verona","37059","45.3821463","11.1344927"
"Al Terrazzo","restaurant","Via Monti Lessini","Erbezzo","Verona","37020","45.6365381","11.0006549"
"Agriturismo La Marmacola","restaurant","Contrada Santa Margherita","Bosco Chiesanuova","Verona","37021","45.6197568","11.0403493"
"La Baita","restaurant","Largo Jenna","Bosco Chiesanuova","Verona","37021","45.6206519","11.0272277"
"Trattoria Ponte di Veja","restaurant","","Sant'Anna d'Alfaedo","Verona","37020","45.6075727","10.9700689"
"L'Araldo","restaurant","Contrada Pianura","Bosco Chiesanuova","Verona","37021","45.5805956","11.0420604"
"Autogrill","restaurant","Autostrada Serenissima","Castelletto","Verona","37038","45.4110634","11.2334817"
"Gallo's & co","restaurant","Via del Commercio","Castelletto","Verona","37038","45.4086365","11.2282851"
"Vecchio Mulino Beach","restaurant","Strada Bergamini","Peschiera del Garda","Verona","37019","45.4478895","10.6740219"
"Al Casot","restaurant","Strada Provinciale della Val d'Adige","Brentino Belluno","Verona","37020","45.6982541","10.922018"
"Autogrill Adige Brennero Ovest","restaurant","Autostrada del Brennero","Sabbionara","Verona","38063","45.6931362","10.9120047"
"Agriturismo Costasenel","restaurant","Via del Baldo","Belluno Veronese","Verona","37020","45.6880994","10.8922049"
"Al Palazzio","restaurant","Autostrada del Brennero","Rivalta","Verona","37020","45.6552907","10.8888133"
"Pizzeria Dai Fradei","restaurant","Via Sant'Urbano","Molina","Verona","37022","45.611631","10.9123652"
"Paroletto","restaurant","Strada Provinciale 33 del Pastello","Breonio","Verona","37022","45.6120938","10.8889801"
"Malga Ime","restaurant","Strada per Ime","Ferrara di Monte Baldo","Verona","37020","45.6596222","10.8297938"
"Ai Tracchi","restaurant","Strada Provinciale 6","Bosco Chiesanuova","Verona","37021","45.6672051","11.0544004"
"Malga Moscarda","restaurant","SP14","Bosco Chiesanuova","Verona","37021","45.6707203","11.0494382"
"Rifugio G. Chierego","restaurant","Variante 656","Ferrara di Monte Baldo","Verona","37020","45.6829132","10.818791"
"Cima 11","restaurant","Via Cristo","Pazzon","Verona","37013","45.6154958","10.831907"
"Casa di Peper","restaurant","SP10","Sant'Andrea","Verona","37030","45.5949348","11.1500409"
"Ristorante Conca dei Parpari","restaurant","SP6","Roverè Veronese","Verona","37028","45.6454509","11.0920106"
"Trattoria il ReMilla","restaurant","SP17","Selva di Progno","Verona","37030","45.6081753","11.1798779"
"Albergo Cacciatore","restaurant","Via Prada","Prada","Verona","37010","45.6611679","10.7685799"
"Agriturismo Malga Baito dei Santi","restaurant","Via del Sengel","Prada","Verona","37010","45.6522888","10.7648708"
"Malga Traure","restaurant","Strada per Naole","Prada","Verona","37010","45.6541244","10.780259"
"Casa di Caccia","restaurant","Sentiero della lana","Illasi","Verona","37039","45.4950901","11.1926416"
"La Cupola","restaurant","Via Mezzavilla","Cellore","Verona","37031","45.4836281","11.180215"
"Agriturismo Monte Sassetti","restaurant","Via Pontesello","Colognola ai Colli","Verona","37030","45.4255796","11.1960699"
"Baita Cerato","restaurant","Via San Giovanni Battista","Bolca","Verona","37030","45.5947728","11.2098429"
"Lido Sopri","restaurant","Via Lungolago","Malcesine","Verona","37018","45.7543986","10.7996132"
"Erbecedario Ristorante","restaurant","Vecchia Via della Lana","Badia Calavena","Verona","37030","45.5917784","11.174219"
"","restaurant","Via Provinciale","Vago","Verona","37030","45.4196557","11.1352406"
"Casa degli Spiriti","restaurant","Via Monte Baldo","Albisano","Verona","37010","45.6190919","10.7162547"
"Locanda San Verolo","restaurant","Via San Verolo","Castion Veronese","Verona","37010","45.6030784","10.7375924"
"Agritouristica Le Rasole","restaurant","Via San Bernardo","Garda","Verona","37016","45.5757458","10.7297985"
"Osteria Metti","restaurant","Località Incaffi","Affi","Verona","37010","45.5504845","10.7635351"
"Le Palafitte","restaurant","Via Santa Cristina","Cisano","Verona","37011","45.5383815","10.7264754"
"Hosteria del Durello","restaurant","Via Cabalao","Montecchia di Crosara","Verona","37030","45.4824427","11.250795"
"Pizzeria Sole - Birrificio 9.1","restaurant","Via degli Alpini","Montecchia di Crosara","Verona","37030","45.4814408","11.2556773"
"Il Mottino","restaurant","Largo Europa","Garda","Verona","37016","45.5717948","10.7096453"
"Bar Trattoria alla Prada","restaurant","Via della Pradà","Cisano","Verona","37011","45.5209359","10.7377335"
"Esperia","restaurant","Via Dante","Lazise","Verona","37017","45.5096808","10.7314454"
"Ristorante Pizzeria Due Laghi","restaurant","Località Vegri","Lazise","Verona","37017","45.4943449","10.7666692"
"Restaurant Terrasse","restaurant","Straße 34","Pacengo","Verona","37017","45.4710642","10.7160603"
"Ristorante Corte Dal Castello","restaurant","Via Croce","Colà","Verona","37017","45.4712975","10.7423826"
"Aquila Ristorante Pizzeria","restaurant","Via Gardesana","Lazise","Verona","37017","45.4971429","10.7386921"
"Sorriso","restaurant","Via Gardesana","Cavalcaselle","Verona","37014","45.4488134","10.7122015"
"Antica Osteria Busocaldo","restaurant","Via Strada Massoni","Peschiera del Garda","Verona","37019","45.4352771","10.6473976"
"Bar-Trattoria Loda","restaurant","Via 1866","Peschiera del Garda","Verona","25019","45.4445049","10.6446404"
"Sapori in cantina","restaurant","Via Strada Berra","Peschiera del Garda","Verona","37019","45.4275763","10.6569347"
"Al Pellegrino","restaurant","Via Frassino","Peschiera del Garda","Verona","37019","45.4317726","10.6754433"
"Pizzeria da Mariano","restaurant","località Badoara","Peschiera del Garda","Verona","37019","45.4318711","10.6803663"
"Corte Riga","restaurant","Via Salisburgo","Peschiera del Garda","Verona","37019","45.4453853","10.6743633"
"Agriturismo La Quercia","restaurant","Via Forneletti","Valeggio sul Mincio","Verona","37067","45.3827855","10.7101289"
"Trattoria da Marisa e Elvio","restaurant","Via Campagna Rossa","Valeggio sul Mincio","Verona","37067","45.404167","10.7293374"
"Agriturismo corte zenati","restaurant","Via Zenati","Castelnuovo del Garda","Verona","37014","45.4134014","10.7378361"
"TRATTORIA PIZZERIA da GULI","restaurant","Via Zuccotti","Cavalcaselle","Verona","37014","45.4211126","10.7259664"
"Relais","restaurant","Via Libertà","Castelcerino","Verona","37038","45.4636618","11.2386837"
"Agriturismo Gasparin","restaurant","Via Roncolati","Santa Margherita","Verona","37030","45.4967856","11.2921863"
"Antares","restaurant","Viale Postumia","Villafranca di Verona","Verona","37062","45.3699236","10.871463"
"Ristorante Lido Paina","restaurant","Via Paina","Malcesine","Verona","37018","45.7691288","10.8108292"
"Pizzeria Ristorante Birreria Suan","restaurant","Via Rocolo","San Giovanni Ilarione","Verona","37035","45.5255027","11.2725135"
"Colombare","restaurant","Via Castello San Felice","Verona","Verona","37125","45.4541858","11.0067378"
"Taverna Ristoro Di Frattini Rosella Susie","restaurant","Via Mosche","Legnago","Verona","37045","45.1941063","11.3369921"
"Pizzeria Stella","restaurant","Via Dante Alighieri","Correzzo","Verona","37060","45.1485261","11.1157402"
"Agriturismo la Preara","restaurant","Via Sambuco","Brognoligo","Verona","37032","45.4539976","11.2670274"
"Osteria Dogana dal 1969","restaurant","Piazza Vittorio Emanuele","Albaredo d'Adige","Verona","37041","45.3179952","11.2677263"
"Ristorante San Marco","restaurant","Via Raffaello Sanzio","Valeggio sul Mincio","Verona","37067","45.3538071","10.7254287"
"Trattoria El Fogolar","restaurant","Via Giuseppe Mazzini","Villafranca di Verona","Verona","37069","45.3298937","10.788926"
"Chiosco la Bosca","restaurant","Strada della Ponta","Pacengo","Verona","37017","45.4778825","10.7184641"
"Trattoria Pizzeria Quinto Miglio","restaurant","Via Valpantena","Verona","Verona","37142","45.4940857","11.0189187"
"Trattoria Sondrio","restaurant","Via Giuseppe Verdi","Castel d'Azzano","Verona","37060","45.3764077","10.96664"
"Osteria alla Rosa","restaurant","Via Cerche","Malcesine","Verona","37018","45.7650853","10.8098509"
"Villa Bongiovanni","restaurant","Via Casotti","San Bonifacio","Verona","37047","45.4138108","11.3280567"
"Locanda Le Muse","restaurant","Via Casotti","San Bonifacio","Verona","37047","45.412911","11.3279343"
"Trattoria Combattente","restaurant","Strada Bergamini","Peschiera del Garda","Verona","37019","45.4496141","10.6698751"
"s´Aligusta","restaurant","Via Bell'Italia","Peschiera del Garda","Verona","37019","45.4447847","10.6720616"
"Ristorante Frassino","restaurant","Via Frassino","Peschiera del Garda","Verona","37019","45.4291721","10.6767211"
"Ristorante Pizzeria Bella Vista","restaurant","Via Lungolago Mazzini","Peschiera del Garda","Verona","37019","45.4402877","10.6898497"
"Hotel Johnson","restaurant","Via Marina","Peschiera del Garda","Verona","37019","45.4409653","10.6967963"
"Cristina e Franco","restaurant","Vicolo Aleardi","Peschiera del Garda","Verona","37019","45.4386805","10.6924563"
"Rosso Peperone","restaurant","Via Generale Carlo Alberto Dalla Chiesa","Pescantina","Verona","37026","45.4838204","10.869978"
"Le Magnolie","restaurant","Via Emilio Salgari","Peschiera del Garda","Verona","37019","45.4418133","10.6991705"
"La Torretta","restaurant","Via G. Galilei","Peschiera del Garda","Verona","37019","45.4385018","10.6934484"
"Il Cantinone","restaurant","Via G. Galilei","Peschiera del Garda","Verona","37019","45.4384176","10.6934069"
"Il Gabbiano","restaurant","Piazzetta Scaligera","Peschiera del Garda","Verona","37019","45.4385565","10.6929951"
"","restaurant","Via Antonio da Legnago","Verona","Verona","37131","45.4484825","11.0431413"
"Al Ponte","restaurant","Via Venezia","Peschiera del Garda","Verona","37019","45.4405688","10.6992425"
"Osteria Le Spine","restaurant","Via Vecchio Mulino","Peschiera del Garda","Verona","37019","45.4461832","10.670272"
"Villa Vento","restaurant","Via Ossario","Sommacampagna","Verona","37066","45.3816717","10.7942944"
"Autogrill","restaurant","Autostrada Serenissima","Sommacampagna","Verona","37066","45.4168624","10.8277431"
"Piper","restaurant","Via Torricelle","Verona","Verona","37128","45.4665727","11.0069433"
"Pizzeria f222","restaurant","Via Colonnello Giovanni Fincato","Verona","Verona","37131","45.4527461","11.0197745"
"Speck Stube Malcesine","restaurant","Via Navene Vecchia","Navene","Verona","37018","45.7838246","10.821195"
"Il Bacco d'oro - Parco di Venere","restaurant","Via Venturi","Mezzane di Sotto","Verona","37030","45.4696387","11.1296585"
"Agriturismo ""La Cueva""","restaurant","Ciclabile","San Bonifacio","Verona","37040","45.386176","11.2658878"
"Hayashi","restaurant","SR11","Bussolengo","Verona","37012","45.4464888","10.8551791"
"Via Verde","restaurant","Strada Provinciale 16","Velo Veronese","Verona","37030","45.5960477","11.1066197"
"Pizzeria Paola","restaurant","Via Gardesana Orientale","Navene","Verona","37018","45.7998394","10.8376699"
"Alla Rama","restaurant","Via Navene Vecchia","Malcesine","Verona","37018","45.7809901","10.8208417"
"Ristorante Al Cervo","restaurant","Via Navene Vecchia","Malcesine","Verona","37018","45.772358","10.8166247"
"Trattoria Molini","restaurant","Via Valle dei Molini","Garda","Verona","37016","45.5861613","10.7259967"
"La Costa In Bra'","restaurant","Piazza Bra","Verona","Verona","37121","45.4396053","10.9932447"
"Le Dase","restaurant","Via Navene Vecchia","Malcesine","Verona","37018","45.7760235","10.8183473"
"Ca Vecia","restaurant","Via Navene Vecchia","Navene","Verona","37018","45.7900266","10.8278324"
"Capri","restaurant","Via Don Quirico Turazza","Malcesine","Verona","37018","45.7629196","10.8077349"
"Mignon","restaurant","Via Dosso","Malcesine","Verona","37018","45.7649811","10.8084334"
"Da Pedro","restaurant","Via Porto Vecchio","Malcesine","Verona","37018","45.7647527","10.8072303"
"Al Marinaio","restaurant","Piazza Magenta","Malcesine","Verona","37018","45.7649654","10.8073853"
"La Pace","restaurant","Via Casella","Malcesine","Verona","37018","45.7650847","10.8074458"
"Pizzeria Capannina","restaurant","Via Poiano","Garda","Verona","37016","45.5800593","10.7303887"
"Autogrill","restaurant","SR11var","Cavalcaselle","Verona","37014","45.4300284","10.7143492"
"Autogrill Lazise","restaurant","Superstrada Peschiera-Affi","Colà","Verona","37017","45.4794855","10.7651469"
"Bellavista","restaurant","Piazza Eichstatt","Bolca","Verona","37030","45.5937063","11.2094122"
"Adele","restaurant","Via Villa Bolca","Bolca","Verona","37030","45.5942503","11.2078831"
"Alla Palazzina","restaurant","Località Prada Bassa","Prada","Verona","37010","45.6650663","10.7711753"
"Ristorante Pizzeria La Staffa","restaurant","Via Avv. Gianni Augusto Ruffo","Arcole","Verona","37040","45.3735356","11.2870075"
"Il Castagneto","restaurant","Via Corrubio","San Zeno di Montagna","Verona","37010","45.6413101","10.7542011"
"Albergo Capriolo","restaurant","Contrada Pra' Bestema'","San Zeno di Montagna","Verona","37010","45.6474167","10.7561233"
"Pizzeria ""Al gatto verde""","restaurant","Via Giacomo Matteotti","Belfiore","Verona","37050","45.380536","11.2128448"
"Botanika","restaurant","Strada Gardesana","Bardolino","Verona","37011","45.5641603","10.7127773"
"La Lanterna","restaurant","Via Torrente Gusa","Garda","Verona","37016","45.5787734","10.7295967"
"El Brol","restaurant","Via Quattro Novembre","Castion Veronese","Verona","37010","45.6061444","10.7270575"
"Malga Faggioli","restaurant","Via Fittanze","Erbezzo","Verona","37020","45.6503358","10.9893763"
"Al Giardinetto","restaurant","Via Campagnol di Tombetta","Verona","Verona","37134","45.4152039","10.993411"
"Osteria al Duca","restaurant","Via Arche Scaligere","Verona","Verona","37121","45.4434505","10.9993864"
"Il Giardinetto","restaurant","Via Don Marcellino Faccio","San Zeno di Montagna","Verona","37010","45.631047","10.7226986"
"Pizzeria Il Thempio","restaurant","Raccordo Autostradale","San Martino Buon Albergo","Verona","37036","45.417747","11.0826596"
"Piccola locanda","restaurant","Via Albere","Bussolengo","Verona","37012","45.4794353","10.8695833"
"Zorba","restaurant","Via della Filanda","Pescantina","Verona","37026","45.4845874","10.8671873"
"Trattoria al tempio","restaurant","Via Chioda","Verona","Verona","37136","45.4087527","10.9506599"
"Trattoria dalla Mostaciona","restaurant","Via Chioda","Verona","Verona","37136","45.4082767","10.9507372"
"Ristorante & Bar Montebaldina","restaurant","Via Lumini","San Zeno di Montagna","Verona","37010","45.6284687","10.7559432"
"Trattoria ""La Mora""","restaurant","Piazza Giacomo Matteotti","Cazzano di Tramigna","Verona","37030","45.4711729","11.2040993"
"Locanda Buglioni","restaurant","Via Cariano","San Pietro in Cariano","Verona","37029","45.5115365","10.8624192"
"Pizzeria Italia","restaurant","Via Lavello","Verona","Verona","37125","45.4720945","10.9746413"
"Casa Rosa","restaurant","Via Pradelle","Verona","Verona","37142","45.481675","11.0433858"
"Cantina Del Sol","restaurant","Via dell'Orsa Maggiore","Sommacampagna","Verona","37066","45.4101022","10.8352284"
"Bacco Re","restaurant","Via Roma","Povegliano Veronese","Verona","37064","45.3448189","10.8819136"
"Da Umberto","restaurant","Via Imbarcadero","Castelletto","Verona","37010","45.687613","10.7497491"
"Taverna San Vigilio","restaurant","Via San Carlo","Garda","Verona","37016","45.5728935","10.6720862"
"Camporosso","restaurant","Via Campo Rosso","Colà","Verona","37017","45.4686195","10.7418991"
"Alle Querce","restaurant","Via Monte Mandion","Caprino Veronese","Verona","37013","45.5910891","10.7859067"
"SitoMato","restaurant","Via Venezia","Bardolino","Verona","37011","45.5565941","10.7178217"
"Hotel Ristorante Costabella","restaurant","Via degli Alpini","San Zeno di Montagna","Verona","37010","45.6318412","10.7259107"
"Autogrill","restaurant","Autostrada del Brennero","Sabbionara","Verona","38063","45.6949206","10.9166936"
"Area Servizio Povegliano Ovest","restaurant","Autostrada del Brennero","Nogarole Rocca","Verona","37060","45.2972181","10.8963283"
"La Littorina del Mincio","restaurant","Via Gardesana Nord","Valeggio sul Mincio","Verona","37067","45.4140652","10.7173929"
"Kappa2","restaurant","Contrada Cà Sartori","San Zeno di Montagna","Verona","37010","45.6369633","10.7319615"
"Gatto Moro","restaurant","Via Giotto","Valeggio sul Mincio","Verona","37067","45.3549362","10.7226658"
"La Vecchia Bottega","restaurant","Via Michelangelo Buonarroti","Valeggio sul Mincio","Verona","37067","45.3536246","10.7237531"
"Antica Locanda Mincio","restaurant","Via Michelangelo Buonarroti","Valeggio sul Mincio","Verona","37067","45.3535307","10.7237024"
"La Cantina","restaurant","Via Giotto","Valeggio sul Mincio","Verona","37067","45.3542748","10.7234627"
"Osteria Al Volto","restaurant","Via Giotto","Valeggio sul Mincio","Verona","37067","45.3541754","10.7236541"
"Osteria La Follia","restaurant","Corso Vittorio Emanuele Secondo","Villafranca di Verona","Verona","37062","45.3545042","10.8465593"
"l'Osteria","restaurant","Via Felice Cavallotti","Peschiera del Garda","Verona","37019","45.4390027","10.6922652"
"Il Forte Dei Cappuccini","restaurant","Via Puccini","Peschiera del Garda","Verona","37019","45.4442274","10.6837424"
"Arca","restaurant","Strada dell'Arca","Bardolino","Verona","37011","45.5610754","10.718469"
"Marc'Aurelio","restaurant","Via Fossalta","Colà","Verona","37017","45.4820939","10.725316"
"Porticciolo","restaurant","Peschiera - Lazise - BNF","Castelnuovo del Garda","Verona","37014","45.4526882","10.6980742"
"Corte Dal Castello","restaurant","Via Croce","Colà","Verona","37017","45.4713218","10.7423273"
"Pizzeria Fantasia","restaurant","Via Madonna","Colà","Verona","37017","45.4722907","10.7482904"
"Pizzeria Ai Testi","restaurant","Via Testi","Castelnuovo del Garda","Verona","37014","45.4413033","10.7585392"
"La Locanda delle Fornase","restaurant","Via Derna","Cavalcaselle","Verona","37014","45.4443915","10.7236043"
"Trattoria Lizzarola","restaurant","Viale Indipendenza","Peschiera del Garda","Verona","37019","45.4446114","10.6590374"
"La Cometa Azzurra","restaurant","Via Monte Pasubio","Peschiera del Garda","Verona","37019","45.4439771","10.7034679"
"Bar Jolly","restaurant","Via Pancera","Peschiera del Garda","Verona","37019","45.4422993","10.6969217"
"'In Chiostro', Ristorante & Lounge Bar","restaurant","Via Don Lenotti","Peschiera del Garda","Verona","37019","45.438222","10.6931914"
"Gistrò Cucina & Pizza","restaurant","Piazza Ferdinando di Savoia","Peschiera del Garda","Verona","37019","45.4382595","10.6950624"
"Al Canal","restaurant","Via Fontana","Peschiera del Garda","Verona","37019","45.4387243","10.6943034"
"Sugo e Basilico","restaurant","Viale della Repubblica","Peschiera del Garda","Verona","37019","45.4401027","10.6868881"
"Rock & Roll Restaurant","restaurant","Strada del Roccolo","Pacengo","Verona","37017","45.4788906","10.7278581"
"","restaurant","Str 1","Lazise","Verona","37017","45.4801365","10.7208185"
"Ristorante Bar Senzanome","restaurant","Piazzale Porto","Pacengo","Verona","37010","45.467906","10.7132362"
"La Forgia","restaurant","Calle Seconda","Lazise","Verona","37017","45.5056689","10.7314975"
"Girasole","restaurant","Via Zappo","Lazise","Verona","37017","45.4989475","10.7453093"
"Hotel Pinamonte","restaurant","Via Don A. Zamperoli","Costermano sul Garda","Verona","37010","45.5869482","10.7429176"
"Trattoria Miralago","restaurant","Via Maoni Bassi","Marciaga","Verona","37010","45.58487","10.7309076"
"La Cross","restaurant","Via della Pace","Garda","Verona","37016","45.5794989","10.7200664"
"Morsi&Sorsi","restaurant","Gardesana Orientale","Lazise","Verona","37017","45.5023866","10.7358107"
"Speck Stube","restaurant","Via Croce","Bardolino","Verona","37011","45.5476496","10.7244678"
"","restaurant","Via San Colombano","Bardolino","Verona","37011","45.5526488","10.7219643"
"Ristorante Tregnago","restaurant","Via Campitelli","Montecchia di Crosara","Verona","37030","45.4641286","11.2832588"
"Mandolara","restaurant","Via San Bernardo","Garda","Verona","37016","45.5731594","10.7105299"
"Vecchia Malcesine","restaurant","Via Pisort","Malcesine","Verona","37018","45.7624071","10.8080194"
"La Virata","restaurant","Via Fosse","Bardolino","Verona","37011","45.5475629","10.7223153"
"Al Vogaor","restaurant","Via Gardesana","Cassone","Verona","37018","45.734784","10.7901962"
"Trattoria Relax","restaurant","Via Ponte Tesina","Castion Veronese","Verona","37010","45.606132","10.7301934"
"Paella valenciana style","restaurant","Via Valpantena","Verona","Verona","37142","45.4967304","11.0188439"
"Pizzeria Bar da Leo","restaurant","Via Valpantena","Verona","Verona","37142","45.5000583","11.0174564"
"Putapariò","restaurant","Via Valpantena","Verona","Verona","37142","45.5032302","11.0172037"
"Biri Ristorante","restaurant","Piazza Statuto","Bardolino","Verona","37011","45.5472745","10.7215629"
"Ristorante Pizzeria Al Frantoio","restaurant","Via Canal","Pesina","Verona","37013","45.6033842","10.7648427"
"Lido","restaurant","Via Pra' del Principe","Lazise","Verona","37017","45.5007847","10.7332818"
"Fortuna","restaurant","Via Cà Nova","Albarè","Verona","37010","45.5704297","10.7592029"
"Cà Morel","restaurant","Via Ca´ Morel","Marciaga","Verona","37010","45.591873","10.7139592"
"Al Cardellino","restaurant","Via Pralesi","Cisano","Verona","37011","45.5254138","10.7319622"
"Al Germano Reale","restaurant","Via della Pergolana","Cisano","Verona","37010","45.5297203","10.7264127"
"Due Alfieri","restaurant","Piazza Lago","Cisano","Verona","37011","45.5295572","10.7261198"
"Bar Pizzeria First Meeting","restaurant","Via Don Gnocchi","Garda","Verona","37016","45.5779483","10.7129032"
"Pizzeria Milano","restaurant","Via Don Gnocchi","Garda","Verona","37016","45.577538","10.712243"
"Hamburgheria Monorotaria","restaurant","Via Derna","Castelnuovo del Garda","Verona","37014","45.4570412","10.7067061"
"The Bandits' Tavern","restaurant","Via Villaggio Tudor - Raptor","Castelnuovo del Garda","Verona","37014","45.4564716","10.7095787"
"Agriturismo San Michele - Ca' del Tocio","restaurant","San Michele","Malcesine","Verona","37018","45.7672921","10.82938"
"Trattoria Campiano","restaurant","San Michele","Malcesine","Verona","37018","45.7636765","10.8236847"
"Italia da Nikolas","restaurant","Via Portici Umberto","Malcesine","Verona","37018","45.7639577","10.8068303"
"Roadhouse","restaurant","SR11","Bussolengo","Verona","37012","45.44662","10.8621578"
"Osteria da Montresor","restaurant","Via Bionde","Verona","Verona","37139","45.458739","10.9392662"
"Taverna Kus","restaurant","SP9","San Zeno di Montagna","Verona","37010","45.6426345","10.7351044"
"Corte Poli","restaurant","Via Mambrotta","San Martino Buon Albergo","Verona","37036","45.3885941","11.1136127"
"Pino 2","restaurant","Via dell'Uva","Garda","Verona","37016","45.577296","10.7288085"
"Agriturismo ""La Zerpa""","restaurant","Via Zerpa","Belfiore","Verona","37050","45.3549051","11.2514805"
"Pizzeria Ristorante MaryGiò","restaurant","Via Giovanni Pascoli","Affi","Verona","37010","45.5522237","10.7891119"
"Tintero Boat","restaurant","Via Canal Bianco","Legnago","Verona","37045","45.0924841","11.308515"
"Ai Pigni de Cerù","restaurant","Via Roma","Fumane","Verona","37022","45.5424464","10.8816995"
"Harbour Restaurant","restaurant","Piazza dei dolci","Castelnuovo del Garda","Verona","37014","45.4553618","10.712064"
"Alfonso's","restaurant","Via Fossalta","Pacengo","Verona","37017","45.4762772","10.7242239"
"Roadhouse","restaurant","Strada Mandella-Baracca","Peschiera del Garda","Verona","37019","45.4328986","10.7057804"
"Pizzabufalina","restaurant","Via dell'Artigianato","Valgatara","Verona","37020","45.5237553","10.9071803"
"Pepperone","restaurant","Via Federico Garofoli","San Giovanni Lupatoto","Verona","37057","45.3992242","11.0202754"
"Lenoteca Food Wine & Spirit","restaurant","Strada Regionale 11 Padana Superiore","Peschiera del Garda","Verona","37019","45.4316605","10.6970847"
"Mexì","restaurant","Via Staffali","Villafranca di Verona","Verona","37062","45.3882096","10.9059931"
"Pizzeria 70","restaurant","Via Amilcare Ponchielli","Verona","Verona","37131","45.4490953","11.0202086"
"Sushiko","restaurant","Via Niccolò Copernico","Verona","Verona","37135","45.4064304","10.9769335"
"Old Wild West","restaurant","Viale delle Nazioni","Verona","Verona","37135","45.4065686","10.9764078"
"Don Peppe","restaurant","Viale delle Nazioni","Verona","Verona","37135","45.4065813","10.9764235"
"Breonio","restaurant","Via Primo Maggio","Breonio","Verona","37022","45.6230471","10.9042709"
"Trattoria Du Scalini","restaurant","Via Bartolomeo Bacilieri","Molina","Verona","37022","45.6123673","10.9118152"
"Pizzeria da Icio","restaurant","Via Cesare Battisti","Fosse","Verona","37020","45.642171","10.9375233"
"Pensione Ombra","restaurant","Via Cesare Battisti","Fosse","Verona","37020","45.6462998","10.9372755"
"Trattoria Chesini","restaurant","Progno di Breonio","Fumane","Verona","37022","45.5896637","10.9070101"
"The Loft 37","restaurant","Via Nazionale","San Martino Buon Albergo","Verona","37036","45.4220451","11.1045023"
"Saporè","restaurant","Via Venti Settembre","San Martino Buon Albergo","Verona","37036","45.4230117","11.0960778"
"Da Gigi","restaurant","Via Cà Begal","Negrar di Valpolicella","Verona","37024","45.5154141","10.9470887"
"La Rustega","restaurant","Località Caselle","Valeggio sul Mincio","Verona","37067","45.3719625","10.7821956"
"","restaurant","Via del Forte","Valeggio sul Mincio","Verona","37067","45.3683296","10.7611017"
"Il Ristocafè","restaurant","Viale delle Fontanelle","San Bonifacio","Verona","37047","45.3789548","11.2846206"
"Le Pergole","restaurant","Via Goldoni","Peschiera del Garda","Verona","37019","45.4498666","10.6655142"
"Maraschina","restaurant","Via Miralago","Peschiera del Garda","Verona","37019","45.4559731","10.6437573"
"Le Tese","restaurant","Strada delle Gioliare","Lazise","Verona","37017","45.4679903","10.7660395"
"Bounty","restaurant","Viale Cordigero","Peschiera del Garda","Verona","37019","45.4386896","10.6946197"
"Ristorante Pizzaria 'La Rocca'","restaurant","Viale Cordigero","Peschiera del Garda","Verona","37019","45.4385632","10.695053"
"Ristorante Pizzeria ""Siena""","restaurant","Via Luigi Fantoni","Villafranca di Verona","Verona","37062","45.3485336","10.835735"
"Charly","restaurant","Via Santa Maria","Porto","Verona","37010","45.7167209","10.776785"
"Capitano","restaurant","Via Lungolago","Porto","Verona","37010","45.7183002","10.7741119"
"Trattoria Rosa","restaurant","Via Antonio Ferrari","San Pietro in Cariano","Verona","37029","45.487526","10.8952"
"Beef steak & more","restaurant","Strada Regionale 11 Padana Superiore","Palazzolo","Verona","37060","45.4465157","10.8350105"
"Boscomantico","restaurant","Via Boscomantico","Verona","Verona","37139","45.4712136","10.9309104"
"NaturaSi","restaurant","Via Ludovico De Besi","Verona","Verona","37139","45.4455859","10.9394196"
"Pizzeria Al Vento","restaurant","Via Sardegna","Verona","Verona","37139","45.4385512","10.9472753"
"Autogrill","restaurant","Autostrada Serenissima","San Bonifacio","Verona","36054","45.4264951","11.3320028"
"","restaurant","Località Casa Olivi","Pacengo","Verona","37017","45.4710072","10.7162698"
"Ristorante al Braciere","restaurant","Via Aie","Mazzantica","Verona","37050","45.3046545","11.0565212"
"Kirin (sushi resturant)","restaurant","Strada Regionale 11 Padana Superiore","Sona","Verona","37060","45.4453183","10.8432921"
"Ristorante tipico La Dacia","restaurant","Via Bondi","Bardolino","Verona","37011","45.5711203","10.7385546"
"Perbacco","restaurant","Via Giosuè Carducci","Verona","Verona","37129","45.4422573","11.0064759"
"La Fontanella","restaurant","Via Pasquaro;Via Sant'Antonio","Montecchia di Crosara","Verona","37030","45.4675681","11.2638428"
"Trattoria Alla Sorte","restaurant","Via Giacomo Barucchi","Verona","Verona","37139","45.46886","10.9425062"
"Trattoria Caprini","restaurant","Via Paolo Zanotti","Negrar di Valpolicella","Verona","37024","45.5606062","10.9418261"
"Pizzeria Trattoria Marconi","restaurant","Piazza Guglielmo Marconi","Zevio","Verona","37059","45.3720409","11.1335431"
"Antica Trattoria Busolo","restaurant","Via Busolo","Vago","Verona","37030","45.4075528","11.128661"
"Ca' Brusà","restaurant","Via Cà Brusà","Vago","Verona","37030","45.4198936","11.1263396"
"L'altro Carlo re","restaurant","Via Tiro a Segno","Zevio","Verona","37059","45.3726692","11.1222415"
"Il Girasole","restaurant","Via Dottori","Zevio","Verona","37059","45.3712833","11.1075355"
"Al Vaghetto","restaurant","Via Vaghetto","Vago","Verona","37030","45.4170379","11.1332607"
"trattoria al bon goto","restaurant","Via Allocco","San Martino Buon Albergo","Verona","37036","45.3879777","11.1156362"
"Ginevra","restaurant","Via Cavalline","San Briccio","Verona","37030","45.4519183","11.1203314"
"come nà olta","restaurant","Via A.G. Tirabosco","San Pietro di Lavagno","Verona","37030","45.4428182","11.1278738"
"Trattoria Grobberio","restaurant","Via Mezzavilla","San Martino Buon Albergo","Verona","37036","45.4648396","11.104442"
"vecchia fontana","restaurant","Via Mezzavilla","San Martino Buon Albergo","Verona","37036","45.4630946","11.1047843"
"Agriturismo Viticcio dei Ronchi","restaurant","Via Bisano","Verona","Verona","37141","45.4866041","11.0811406"
"Ristorante al Ponte","restaurant","Via Ruda","Tombazosana","Verona","37055","45.3202694","11.2637142"
"Osteria dal pipa","restaurant","Via dei Cipressi","Verona","Verona","37141","45.4654596","11.066721"
"Villa De Winckels","restaurant","Via Sorio","Tregnago","Verona","37039","45.5208715","11.1530544"
"Bar Pizzeria Posta","restaurant","Piazza Sant'Egidio","Tregnago","Verona","37039","45.5143255","11.1655024"
"il giardino","restaurant","Via Venticinque Aprile","San Giovanni Lupatoto","Verona","37057","45.3793374","11.0498635"
"el capel","restaurant","Via Treviso","San Giovanni Lupatoto","Verona","37057","45.3768956","11.0482756"
"Pizzeria Cavour","restaurant","Via Slavacchio","Legnago","Verona","37045","45.197871","11.3207228"
"pizzeria al taglio","restaurant","Via San Pio X","Legnago","Verona","37045","45.1962671","11.3157598"
"La Tonda","restaurant","Via Brennero","Pescantina","Verona","37026","45.493884","10.8780745"
"Pizzeria San Mattia","restaurant","Viale dei Colli","Verona","Verona","37128","45.4631534","10.9947142"
"Locanda San Leonardo","restaurant","Viale dei Colli","Verona","Verona","37128","45.4589783","10.9953088"
"Trattoria Biondani","restaurant","Via Piemonte","Bussolengo","Verona","37012","45.4731228","10.8853885"
"","restaurant","3","Malcesine","Verona","37018","45.7694366","10.8643316"
"Pizzeria Ristorante Bella Italia Locanda","restaurant","Via Bell'Italia","Peschiera del Garda","Verona","37019","45.4446289","10.6727054"
"Ristorante & Pizza Bella Italia Corte Riga","restaurant","Via Bell'Italia","Peschiera del Garda","Verona","37019","45.4451775","10.6744935"
"Le Caldane","restaurant","Strada dei Boschi","Colà","Verona","37017","45.4798357","10.7479169"
"Corte San Giovanni","restaurant","Vicolo Sirmione","Bardolino","Verona","37011","45.5478319","10.7192936"
"Osteria Scalin","restaurant","Via San Vitale","Verona","Verona","37129","45.4394324","11.0041704"
"La Loda","restaurant","Via Magonia","Garda","Verona","37016","45.5797667","10.6991092"
"Ristorante San Martino","restaurant","Via San Martino","Bardolino","Verona","37011","45.5469079","10.7208176"
"Castello di Bevilacqua","restaurant","Via Castello","Bevilacqua","Verona","37040","45.2334506","11.4008728"
"","restaurant","Via Stradone","Roverchiaretta","Verona","37050","45.2603203","11.263637"
"Ristorante al Parolo","restaurant","Viale Nogarole","San Bonifacio","Verona","37037","45.3922233","11.2937016"
"Piccolo Doge","restaurant","Via Santa Cristina","Cisano","Verona","37011","45.5364377","10.7270849"
"Osteria Mattarana pizzeria","restaurant","Via Mattarana","Verona","Verona","37132","45.4405162","11.0595826"
"Finger Sushi","restaurant","Via Unità d'Italia","Verona","Verona","37132","45.4340262","11.0421013"
"Pizzeria Carlo Re","restaurant","Viale Spolverini","Verona","Verona","37131","45.4395996","11.0285328"
"Pizzeria Notte e Dì","restaurant","Via Aldo Manuzio","Verona","Verona","37131","45.440671","11.0348532"
"Lomitos Argentinos Verona","restaurant","Via Cesare Betteloni","Verona","Verona","37131","45.4438999","11.0208869"
"Pizzeria Congo","restaurant","Via del Sole","Albaredo d'Adige","Verona","37041","45.3152888","11.2742821"
"Trattoria al Metano da Anna","restaurant","Via Bartolomeo Avesani","Verona","Verona","37122","45.4264111","10.9936856"
"Civico 2 Tripoli","restaurant","Via Spagna","Verona","Verona","37123","45.4440124","10.9792615"
"Agriturismo ""Al Bosco""","restaurant","Via Borgoletto","Colognola ai Colli","Verona","37030","45.4397178","11.1968611"
"Al Rustico","restaurant","Corso Cangrande","Lazise","Verona","37017","45.5066653","10.7317369"
"Corte Olivo","restaurant","Corso Cangrande","Lazise","Verona","37017","45.506906","10.7335223"
"Locanda alla Chiesa","restaurant","Via Chiesa","Lazise","Verona","37017","45.5058065","10.7335909"
"Taverna da Oreste","restaurant","Via Francesco Fontana","Lazise","Verona","37017","45.5053642","10.7314895"
"Locanda Bordin","restaurant","Via Porto","Pescantina","Verona","37026","45.4737755","10.9033569"
"Il Fiorellino Beer e Pub","restaurant","Lungolago Giuseppe Garibaldi","Peschiera del Garda","Verona","37019","45.4443052","10.6946007"
"Trattoria Moscal","restaurant","Via Pigna","Affi","Verona","37010","45.5525175","10.7718065"
"Al Torcolo","restaurant","Strada del Torcolo","Cavaion Veronese","Verona","37010","45.5275814","10.7642924"
"Il Caminetto","restaurant","Via Verona","Bardolino","Verona","37011","45.5219349","10.7529617"
"La Taverna del Borgo","restaurant","Via Stazione","Bardolino","Verona","37011","45.5221965","10.7520809"
"Pizzeria Da Salvatore","restaurant","Piazza San Tomaso","Verona","Verona","37129","45.4428412","11.0023909"
"Agriturismo mecenero","restaurant","S.P. 17/C","Santa Margherita","Verona","37030","45.4878582","11.3094514"
"Trattoria Fattori","restaurant","Via Piazza Terrossa","Roncà","Verona","37030","45.4645535","11.3195949"
"Agrtirusimo Nido D'aquila","restaurant","Via La Fenice","Santa Margherita","Verona","37030","45.4853983","11.3244921"
"Bar-Trattoria Ciclamino","restaurant","Sentiero-Strada","Chiampo","Verona","36072","45.5098112","11.2827444"
"Vittorio Emanuele","restaurant","Piazza Bra","Verona","Verona","37121","45.4392547","10.9923015"
"Trattoria La Val","restaurant","Via Valle dei Molini","Marciaga","Verona","37010","45.5895349","10.7308944"
"L'amalfitana","restaurant","Viale Cristoforo Colombo","Verona","Verona","37138","45.4480568","10.9740809"
"All'Albero","restaurant","Piazza Cavour","Malcesine","Verona","37018","45.7654064","10.8093305"
"Agli Scaligeri","restaurant","Via Caselunghe","Malcesine","Verona","37018","45.7654023","10.8090838"
"Poseidon","restaurant","Via Giacomo Matteotti","Bussolengo","Verona","37012","45.4727169","10.8468687"
"La Vecchia Lira","restaurant","Via Calabria","Verona","Verona","37139","45.4381007","10.9485888"
"Pizzeria Mundial","restaurant","Via Gian Lorenzo Bernini","Legnago","Verona","37045","45.2000901","11.2948393"
"Cantina Battisti S.n.c.","restaurant","Via Niccolò Copèrnico","Vago","Verona","37030","45.4194948","11.1352334"
"Genzianella","restaurant","SP6","Bosco Chiesanuova","Verona","37021","45.6870819","11.0858748"
"Al Regio Patio","restaurant","Via San Francesco d'Assisi","Garda","Verona","37016","45.573861","10.7087332"
"Da Gianni","restaurant","Via Nassar","Pescantina","Verona","37026","45.4821821","10.9110851"
"Settimo Cielo","restaurant","Via Enrico Bernardi","Pescantina","Verona","37026","45.480536","10.9034194"
"Semo Quà","restaurant","Via Piazza Menà","Menà","Verona","37043","45.0868078","11.4364433"
"Pizzeria Catullo","restaurant","Lungolago Regina Adelaide","Garda","Verona","37016","45.5761699","10.7055906"
"Ristorante La Losa","restaurant","Lungolago Regina Adelaide","Garda","Verona","37016","45.5748212","10.7072972"
"Ristorante Il Giardinetto","restaurant","Lungolago Regina Adelaide","Garda","Verona","37016","45.5752045","10.7065549"
"Taverna El Busetto","restaurant","Lungolago Regina Adelaide","Garda","Verona","37016","45.5754306","10.7062603"
"Ristorante ai Capitani","restaurant","Lungolago Regina Adelaide","Garda","Verona","37016","45.575696","10.7059539"
"Osteria al Porto","restaurant","Lungolago Regina Adelaide","Garda","Verona","37016","45.5762347","10.7055419"
"Bellavista","restaurant","SR249","Cassone","Verona","37018","45.7302084","10.7831491"
"Trattoria Zanini","restaurant","Via Prova","San Bonifacio","Verona","37047","45.398879","11.2965736"
"Ristorante Al Fante","restaurant","Via Barozzino","Valeggio sul Mincio","Verona","37067","45.3675016","10.7256746"
"Le Terazze","restaurant","Via Bell'Italia","Peschiera del Garda","Verona","37019","45.4458371","10.6787788"
"Mamma Mia","restaurant","Piazza Bra","Verona","Verona","37121","45.4389401","10.9919103"
"Galileo Risto Pub","restaurant","VIa Parco ai Cotoni","San Giovanni Lupatoto","Verona","37057","45.3815187","11.0412086"
"La Stua","restaurant","Circonvallazione Monte Baldo","Erbezzo","Verona","37020","45.6431804","10.997368"
"CibariuM","restaurant","Via Pra' del Principe","Lazise","Verona","37017","45.5029017","10.7331283"
"Al Drago","restaurant","Piazza Vittorio Emanuele II","Lazise","Verona","37017","45.5053032","10.732779"
"Gallo Nero","restaurant","Piazza Vittorio Emanuele II","Lazise","Verona","37017","45.5053032","10.7325647"
"Il Porticciolo","restaurant","Lungolago Marconi","Lazise","Verona","37017","45.5075184","10.7314057"
"Riviera","restaurant","Lungolago Marconi","Lazise","Verona","37017","45.5058454","10.7312034"
"Taverna Marconi","restaurant","Lungolago Marconi","Lazise","Verona","37017","45.5063431","10.7310452"
"Tropical","restaurant","Lungolago Marconi","Lazise","Verona","37017","45.5057527","10.7312081"
"Vela Bianca","restaurant","Lungolago Marconi","Lazise","Verona","37017","45.505543","10.7311337"
"La Fornica","restaurant","Via Fosse","Bardolino","Verona","37011","45.5485307","10.7204912"
"Il giardino delle Esperidi","restaurant","Via Goffredo Mameli","Bardolino","Verona","37011","45.5483537","10.7200541"
"Caprice","restaurant","Via Goffredo Mameli","Bardolino","Verona","37011","45.5482822","10.7198758"
"La Fenice Hostaria","restaurant","Via Boi","Rubiana","Verona","37013","45.6013308","10.7731282"
"Trattoria Sarsissa","restaurant","Piazza Olivo","Castelletto","Verona","37010","45.6868284","10.7506357"
"Le Cedrare","restaurant","Via Perez Pompei","Illasi","Verona","37031","45.4696077","11.1819553"
"Trattoria La Pineta","restaurant","Via Celestino Ledri","Fumane","Verona","37022","45.5436282","10.8828288"
"Trattoria il Borgo","restaurant","Via Bassone","Verona","Verona","37139","45.4531138","10.9002921"
"Trattoria Albaromatto","restaurant","Via Albaromatto","Vestenanova","Verona","37030","45.5699353","11.2406963"
"Bottega & Tavola di Corte Palazzina","restaurant","Via Francesco Berni","Verona","Verona","37122","45.4340106","10.985803"
"Osteria dal Poeta","restaurant","Via Luigi Galvani","Verona","Verona","37138","45.4506187","10.9624069"
"Agriturismo La Coetta","restaurant","Via Coetta","San Martino Buon Albergo","Verona","37036","45.3989756","11.0979454"
"La Sorgente","restaurant","Via Pontara Sandri","Verona","Verona","37036","45.41694","11.0788793"
"Osteria n°1","restaurant","Via Flaminio Pellegrini","Fumane","Verona","37022","45.5397408","10.878428"
"Ristorante Ca' dei Maghi","restaurant","Località Cà dei Maghi","Fumane","Verona","37022","45.5443208","10.8913562"
"Ristorante Scamperle","restaurant","Via Incisa","Fumane","Verona","37022","45.5437906","10.8833851"
"Agriturismo La Pietra Nera","restaurant","Via Ranfani","San Giovanni Ilarione","Verona","37035","45.5257018","11.2411553"
"Ristorante Bar da Claudio","restaurant","Via Mazzini","San Giovanni Ilarione","Verona","37035","45.5278341","11.2381559"
"Ristorante Rey sol","restaurant","Via Finato dottor Lotario","Concamarise","Verona","37050","45.2171791","11.1414712"
"Trattoria Bridi","restaurant","Via Cavallina","Zevio","Verona","37059","45.3677774","11.1685708"
"Corte Pellegrini","restaurant","Via Campalto","San Martino Buon Albergo","Verona","37036","45.3972643","11.0837382"
"I 13 Comuni","restaurant","Piazza Vittoria","Velo Veronese","Verona","37030","45.6054601","11.0957933"
"Pizzeria Bar Campara","restaurant","Strada Provinciale 16","Velo Veronese","Verona","37030","45.5980926","11.1007329"
"Alla Scimmia","restaurant","Via Ferrazze","San Martino Buon Albergo","Verona","37036","45.4328953","11.0826103"
"Al Ponte","restaurant","Via Brolo Musella","San Martino Buon Albergo","Verona","37036","45.4434213","11.0785146"
"Cà Rossa","restaurant","Via Petraca","Bardolino","Verona","37011","45.5583181","10.7173651"
"Pizzeria Ornella","restaurant","Via Boccaccio","Vago","Verona","37030","45.4187912","11.1330441"
"","restaurant","Viale dell'Industria","Caldiero","Verona","37042","45.4171831","11.1575548"
"Caprice","restaurant","Piazza San Nicolò","Assenza","Verona","37010","45.7262005","10.7812602"
"Girò","restaurant","Via Monticelli","Vago","Verona","37030","45.4254251","11.1370419"
"Industry Beer Park","restaurant","Via 4 Strade","Vago","Verona","37030","45.424226","11.1317634"
"Pizzeria Saval","restaurant","Via Quarto Ponte","Verona","Verona","37138","45.4503614","10.9644919"
"Punjab","restaurant","Via Marin Faliero","Verona","Verona","37138","45.4524032","10.9655734"
"Malaspina","restaurant","Via Quattro Novembre","Isola Rizza","Verona","37050","45.2890736","11.1999143"
"Perbellini","restaurant","Via Muselle","Isola Rizza","Verona","37050","45.2859243","11.1876728"
"Trattoria Sartori","restaurant","Via Vivaldi","Isola Rizza","Verona","37050","45.2922172","11.1974842"
"Intrigante","restaurant","Via Puglie","Verona","Verona","37139","45.4567108","10.945244"
"Agriturismo La Frasca","restaurant","Via Mazzasetti","San Giovanni Ilarione","Verona","37035","45.5118136","11.2331598"
"Trattoria Andreoli","restaurant","Via Primo Maggio","Zevio","Verona","37059","45.3690108","11.1102087"
"Il Gelato di Camilla","restaurant","Via Adamello","San Martino Buon Albergo","Verona","37036","45.4259127","11.0996495"
"Pizzeria Lui & Lei","restaurant","Via Adamello","San Martino Buon Albergo","Verona","37036","45.4257778","11.0999141"
"Pizzeria al Maglio","restaurant","Via Maglio","San Martino Buon Albergo","Verona","37036","45.4165858","11.1062252"
"Greppia","restaurant","Vicolo Samaritana","Verona","Verona","37121","45.4417238","10.9976269"
"Agriturismo Val del Tasso","restaurant","ex-binari","Camporengo","Verona","37010","45.5305039","10.7976566"
"Panormica","restaurant","Via Casteggioni","Colognola ai Colli","Verona","37030","45.4276594","11.2021384"
"il serraglio B&B","restaurant","Via Corte Pietà","Sona","Verona","37060","45.3925133","10.7726741"
"","restaurant","Via Ungaretti","San Bonifacio","Verona","37047","45.3965894","11.2799223"
"Stadio","restaurant","Via Fiume","San Bonifacio","Verona","37047","45.4004269","11.2773434"
"Ristorante Pizzeria Garden","restaurant","Corso Giuseppe Garibaldi","Malcesine","Verona","37018","45.7645115","10.8068732"
"La Fucina","restaurant","Piazzale Vittorio Veneto","Bussolengo","Verona","37012","45.4699749","10.8507877"
"Risrorante Ristoro","restaurant","Via Navene Vecchia","Malcesine","Verona","37018","45.7657322","10.811453"
"La Gare","restaurant","Via Vittorio Emanuele III","Nogara","Verona","37054","45.179713","11.0688272"
"La Locanda Enoteca","restaurant","Via Ponte Pietra","Verona","Verona","37121","45.4470317","10.9994811"
"Carnero","restaurant","Via San Pieretto","Affi","Verona","37010","45.551311","10.7920111"
"Il Filò di Compri S.","restaurant","Via Strà","Colognola ai Colli","Verona","37030","45.4152607","11.1815696"
"","restaurant","Via 1866","Peschiera del Garda","Verona","25019","45.444521","10.6446259"
"Pizzeria Le rose","restaurant","Via Giuseppe Zamboni","Villafranca di Verona","Verona","37069","45.3413319","10.8153104"
"Pizzeria ristorante","restaurant","SP3","Mozzecane","Verona","37060","45.3111412","10.8248823"
"Speck Stube Valeggio","restaurant","Via Monzambano","Valeggio sul Mincio","Verona","37067","45.3647759","10.7252111"
"Pizzeria Aurora","restaurant","Via Porto Vecchio","Peschiera del Garda","Verona","37019","45.4336735","10.6989778"
"Osteria Rivelin","restaurant","Via Milano","Peschiera del Garda","Verona","37019","45.4377558","10.6907163"
"Antica Osteria","restaurant","Via Adolfo Consolini","Albarè","Verona","37010","45.5698696","10.7464036"
"Ristorante San Valentino","restaurant","Via S. Valentino","San Mauro di Saline","Verona","37030","45.5558505","11.1189439"
"Pizzeria Delle Nazioni","restaurant","Circonvallazione Alfredo Oriani","Verona","Verona","37122","45.4319438","10.986984"
"Gourmet","restaurant","Via Staffali","Villafranca di Verona","Verona","37062","45.3889443","10.9045903"
"La città d'oro Liu Xiao","restaurant","Via Nino Bixio","Villafranca di Verona","Verona","37069","45.3541604","10.8421411"
"Bassanella","restaurant","Località Volponi","Peschiera del Garda","Verona","37019","45.4533664","10.6509364"
"Trattoria da Pulcinella","restaurant","Via Bell'Italia","Peschiera del Garda","Verona","37019","45.4494084","10.6650222"
"","restaurant","Via Ragazzi del ´99","Peschiera del Garda","Verona","37019","45.4470749","10.6642137"
"Antica Arilica","restaurant","Via Mantova","Peschiera del Garda","Verona","37019","45.4370809","10.6845764"
"Antica Osteria Molinari","restaurant","Via Porto","Pacengo","Verona","37010","45.4671468","10.7205722"
"","restaurant","Piazza Senatore Alberti","Pacengo","Verona","37017","45.4674276","10.7212525"
"La Creperie","restaurant","Lungolago Giuseppe Garibaldi","Peschiera del Garda","Verona","37019","45.4431746","10.6958599"
"Trattoria Luisa","restaurant","Via Silvestro Lega","Peschiera del Garda","Verona","37019","45.4362148","10.6819545"
"Il Richiamo","restaurant","Via Quattro Novembre","Castel d'Azzano","Verona","37060","45.3570745","10.9355651"
"Al Santuario","restaurant","Piazzale Madonna del Frassino","Peschiera del Garda","Verona","37019","45.4290338","10.6760311"
"Tavernetta","restaurant","Via San Zeno","Cavalcaselle","Verona","37014","45.4381176","10.7211172"
"Le Tavernette","restaurant","Via Corrubbio","Albisano","Verona","37010","45.6119437","10.703683"
"Osteria O La Va O La Spacca","restaurant","Via Brennero","Pescantina","Verona","37026","45.4955713","10.8741044"
"Ristorante Pizzeria Il Merlo","restaurant","Lungolago Regina Adelaide","Garda","Verona","37016","45.5738322","10.7071578"
"Pizzeria Ristorante Ca' del Borgo","restaurant","Borgo Giuseppe Garibaldi","Bardolino","Verona","37011","45.5489861","10.7207687"
"Cà billi","restaurant","Viale della Repubblica","Costermano sul Garda","Verona","37010","45.584988","10.7422305"
"Ristorante Pizzeria Italy","restaurant","Via Oliveti","Albisano","Verona","37010","45.6112599","10.7021064"
"alla Borsa","restaurant","Via Goito","Valeggio sul Mincio","Verona","37067","45.3524807","10.7338745"
"Pizzeria ai Lamberti","restaurant","Piazza delle Erbe","Verona","Verona","37121","45.4434886","10.9970857"
"Dal Mato","restaurant","Strada Mandella-Baracca","Peschiera del Garda","Verona","37019","45.4362694","10.7093884"
"Ristorante Pilotto","restaurant","Strada Mandella-Baracca","Peschiera del Garda","Verona","37019","45.433899","10.7079648"
"Al Cacciatore","restaurant","Via Circonvallazione Sud","Valeggio sul Mincio","Verona","37067","45.3520352","10.7345039"
"La Torre","restaurant","Via Circonvallazione Sud","Valeggio sul Mincio","Verona","37067","45.352053","10.7352569"
"Ristorante Castello","restaurant","Via Jacopo Foroni","Valeggio sul Mincio","Verona","37067","45.3531329","10.733372"
"Tre Corone","restaurant","Via Magenta","Valeggio sul Mincio","Verona","37067","45.3541328","10.734367"
"Olivo","restaurant","Piazza Olivo","Castelletto","Verona","37010","45.6864805","10.7506872"
"Osteria al Pescatore","restaurant","Via Imbarcadero","Castelletto","Verona","37010","45.6871826","10.7497917"
"Pizzeria","restaurant","Via San Luigi","Pesina","Verona","37013","45.5994951","10.7583292"
"La Bussola","restaurant","Via Spagna","Garda","Verona","37016","45.5759759","10.706603"
"Albergo Ristorante Grossule","restaurant","Via San Francesco","Roverè Veronese","Verona","37028","45.6259437","11.0715214"
"Ristorante Orfea","restaurant","Via San Francesco","Roverè Veronese","Verona","37028","45.6259606","11.0721115"
"Albergo Ristorante Jegher","restaurant","SP35","Roverè Veronese","Verona","37028","45.6051523","11.069629"
"Ristorante Parparo Vecchio","restaurant","","Roverè Veronese","Verona","37028","45.6508028","11.0943121"
"","restaurant","Via Giovanni Paolo II","Cavalcaselle","Verona","37014","45.437036","10.7164512"
"Aris","restaurant","Via A. Bottura","Malcesine","Verona","37018","45.7646713","10.8087181"
"Al Graspo","restaurant","Piazza Calderini","Garda","Verona","37016","45.5754683","10.7084577"
"Giuly","restaurant","Via Venti Settembre","Magugnano","Verona","37010","45.7074556","10.7661091"
"Il Vapor","restaurant","Via Venti Settembre","Magugnano","Verona","37010","45.7075731","10.7661583"
"La Roche","restaurant","Via Venti Settembre","Magugnano","Verona","37010","45.7066687","10.7656523"
"","restaurant","Via Val di Gazo","Bardolino","Verona","37011","45.5540793","10.7343114"
"Trattoria Bar Panoramico Crero","restaurant","Via per Crero","Torri del Benaco","Verona","37010","45.6391271","10.7115832"
"Al Paradiso","restaurant","Via Porta del Lion","Lazise","Verona","37017","45.5044431","10.7332255"
"","restaurant","Strada Provinciale Monte Baldo","Ferrara di Monte Baldo","Verona","37020","45.7086378","10.8611336"
"La Terrazza di Cisano","restaurant","Lungolago Alessandro","Cisano","Verona","37011","45.524637","10.7275307"
"Regnum","restaurant","Via Gian Matteo Giberti","Verona","Verona","37122","45.4344928","10.986929"
"La Bastia","restaurant","Via Bastia","Valeggio sul Mincio","Verona","37067","45.3526421","10.7314795"
"Pizzeria da Gaetano 2","restaurant","Via Magenta","Villafranca di Verona","Verona","37069","45.3560956","10.8389433"
"Pico Verde","restaurant","Via Ossario","Sommacampagna","Verona","37062","45.3772784","10.7909035"
"Country House Casino di Caccia","restaurant","Strada comunale detta per Bagolina e pel Cappello","Sommacampagna","Verona","37066","45.3881067","10.8005504"
"Berna","restaurant","Via Roma","Erbezzo","Verona","37020","45.6408141","11.0010002"
"Trattoria Busocaldo","restaurant","Via Strada Massoni","Peschiera del Garda","Verona","37019","45.4352557","10.6473909"
"Markas","restaurant","Via Bengasi","Verona","Verona","37135","45.4054307","10.9917921"
"Pizzeria l'angolo verde","restaurant","Via Albarin","Negrar di Valpolicella","Verona","37024","45.5779634","10.9594769"
"","restaurant","Via Proale","Negrar di Valpolicella","Verona","37024","45.5686469","10.9573021"
"Pizzeria Ristorante Mazzi","restaurant","Corte Mazzi","Valeggio sul Mincio","Verona","37067","45.3324585","10.7537902"
"Al Gavinel","restaurant","Via Ceredo","Sant'Anna d'Alfaedo","Verona","37020","45.6221808","10.9731318"
"Cà Persiane","restaurant","Località Cà Persiane","Cavaion Veronese","Verona","37013","45.5306572","10.7783284"
"Paglia e Fieno","restaurant","Via San Zeno","Cerea","Verona","37053","45.2046867","11.2029775"
"Nouvelle Rose","restaurant","Via Libertà","Cerea","Verona","37053","45.1946131","11.2138673"
"Trattoria Tre Marchetti","restaurant","Vicolo Tre Marchetti","Verona","Verona","37121","45.4398407","10.9942903"
"Golden Beach","restaurant","Via Gardesana","Lazise","Verona","37017","45.497629","10.7332666"
"Ristorante La Pergola","restaurant","Via Gardesana","Lazise","Verona","37017","45.4960624","10.7378558"
"Bar Pizzeria Gelateria Galetto","restaurant","Piazza San Rocco","Valeggio sul Mincio","Verona","37067","45.3553826","10.7325571"
"Origano","restaurant","Via Gasparina","Castelnuovo del Garda","Verona","37014","45.4534346","10.7027233"
"Osteria Paverno","restaurant","Via Paverno","Valgatara","Verona","37020","45.5381697","10.913033"
"Rose e basilico","restaurant","Piazza Roma","Negrar di Valpolicella","Verona","37024","45.5310122","10.9369052"
"Superpizza","restaurant","Via Giuseppe Mazzini","Valeggio sul Mincio","Verona","37067","45.3523624","10.7376929"
"Osteria al Vicolo","restaurant","Via Venti Settembre","Garda","Verona","37016","45.5743818","10.7093892"
"Kobe","restaurant","Corso Porta Nuova","Verona","Verona","37122","45.4336021","10.9895584"
"Al Forte","restaurant","Località Telegrafo","Pastrengo","Verona","37010","45.4895987","10.8100508"
"Ristorante Caserma Leopold","restaurant","Località Telegrafo","Pastrengo","Verona","37010","45.485438","10.8044923"
"Trattoria alla Madonna","restaurant","Via Venticinque Aprile","Pastrengo","Verona","37010","45.4919642","10.8001305"
"Pizzeria Gardesana","restaurant","Via Monte Sabotino","Bussolengo","Verona","37012","45.468841","10.8545758"
"Bar Ristorante DA RIGO","restaurant","Via Guglielmo Marconi","Cavaion Veronese","Verona","37010","45.5223445","10.8028365"
"Ostregheteria Sottoriva 23","restaurant","Via Don Bassi","Verona","Verona","37121","45.4451016","11.0004575"
"Pizzeria Trattoria Gaon","restaurant","Via Val dei Molini","Rubiana","Verona","37013","45.6140652","10.7973205"
"L'Isola della Pizza","restaurant","Via Stazione","Villafranca di Verona","Verona","37062","45.3906062","10.9157535"
"Pizzeria da Paolo","restaurant","Via Cavour","Villafranca di Verona","Verona","37062","45.3961769","10.912494"
"Sushi Home","restaurant","Via Città di Nimes","Verona","Verona","37122","45.4330117","10.9842333"
"Ristorante Cavour","restaurant","Via Cavour","Villafranca di Verona","Verona","37062","45.3968256","10.9146521"
"Olioso","restaurant","Via Frassino","Peschiera del Garda","Verona","37019","45.429429","10.6771151"
"Trattoria Vecio Balilla","restaurant","Via Cesare Battisti","Isola della Scala","Verona","37063","45.2728124","11.0071909"
"Agriturismo il Porcellino","restaurant","Via San Vincenzo","Verona","Verona","37142","45.4963376","11.0026277"
"Ristorante Ciccarelli","restaurant","Via Mantovana","Verona","Verona","37062","45.405572","10.928814"
"Bellavista","restaurant","Strada Provinciale 16","San Mauro di Saline","Verona","37030","45.5476772","11.1209633"
"Bettola","restaurant","SP36","Tregnago","Verona","37030","45.5451398","11.1263203"
"Pizzeria Trattoria Maestà","restaurant","Via Mantovana","Verona","Verona","37137","45.4212096","10.9538658"
"Pizzeria La Sorpresa","restaurant","Via Cavour","Villafranca di Verona","Verona","37062","45.3957241","10.9126699"
"L'ate della pizza","restaurant","Via Goffredo Mameli","Bardolino","Verona","37011","45.5481484","10.7196128"
"Osteria del Lago","restaurant","Via Goffredo Mameli","Bardolino","Verona","37011","45.5483058","10.7199077"
"Ristorante Pizzeria Casanova","restaurant","Via Goffredo Mameli","Bardolino","Verona","37011","45.548399","10.7198524"
"Ristorante Bar Pizzeria La lanterna","restaurant","Via Goffredo Mameli","Bardolino","Verona","37011","45.5482905","10.7196281"
"Free Food","restaurant","Viale Thomas Edison","Zevio","Verona","37059","45.3620533","11.0462919"
"Osteria Giulietta e Romeo","restaurant","Corso Sant'Anastasia","Verona","Verona","37121","45.4443078","10.997998"
"Bar Trattoria Il Cavallino","restaurant","Via Giuseppe Verdi","Valeggio sul Mincio","Verona","37067","45.3556913","10.7329391"
"Residenza Vecelli Cavriani","restaurant","Via Caterina Bon Brenzoni","Mozzecane","Verona","37060","45.3090179","10.8170729"
"Corte Trebisonda","restaurant","Via Postumia","Villafranca di Verona","Verona","37062","45.3284254","10.8043218"
"Ristorante Pizzeria Almarò","restaurant","Via Custoza","Villafranca di Verona","Verona","37069","45.3550441","10.8371145"
"Osteria Locandina Cappello","restaurant","Via Cappello","Verona","Verona","37121","45.44138","10.9987013"
"Azienda Agrituristica Corte Vecia","restaurant","Via Sasse","Verona","Verona","37132","45.4133576","11.0531762"
"La lanterna","restaurant","Via Berto Barbarani","Verona","Verona","37123","45.4418158","10.9820337"
"Trattoria Monte San Pietro","restaurant","Via Campanari","Badia Calavena","Verona","37030","45.5669156","11.1640513"
"Pizzeria Da Gianni","restaurant","Piazza Umberto I","San Giovanni Lupatoto","Verona","37057","45.3817316","11.0466703"
"Agriturismo l'Incanto","restaurant","SC","Campofontana","Verona","37030","45.6411804","11.1510354"
"Trattoria Ruzzenente","restaurant","Via Duca degli Abruzzi","Villafranca di Verona","Verona","37069","45.3270557","10.8335109"
"Menta e Rosmarino","restaurant","Via Marin Faliero","Verona","Verona","37138","45.4517965","10.9668316"
"Bar-Pizzeria La Rotonda","restaurant","Via Roverè Mille","Roverè Veronese","Verona","37028","45.5934345","11.0747149"
"Hotel Ristorante Centrale","restaurant","Viale della Rimembranza","Roverè Veronese","Verona","37028","45.5935716","11.0657281"
"San Matteo Church","restaurant","Vicolo San Matteo","Verona","Verona","37121","45.4418376","10.9938715"
"Ci sta","restaurant","Via Leoni","Verona","Verona","37121","45.4402313","10.9996099"
"Terrazza Bar Al Ponte","restaurant","Via Ponte Pietra","Verona","Verona","37121","45.4472143","10.9996886"
"Ristorante Bar Graziano e Loretta","restaurant","Via Caterina Bon Brenzoni","Mozzecane","Verona","37060","45.3112862","10.8188835"
"Spizzati","restaurant","Via Antonio Murari","Valeggio sul Mincio","Verona","37067","45.3574094","10.7348652"
"Agriturismo Le Bianchette","restaurant","Stradella Bianchette","Sommacampagna","Verona","37066","45.3741946","10.8108922"
"Ristorante al Tesoro","restaurant","Via Fiorita","Sant'Anna d'Alfaedo","Verona","37020","45.5978539","10.9563777"
"Ristoro Martin Pescatore","restaurant","Via Quattro Novembre","Castel d'Azzano","Verona","37060","45.3537009","10.9402618"
"Pizzeria Putapariò","restaurant","Via Colonnello Giovanni Fincato","Verona","Verona","37131","45.4494643","11.0201087"
"Agriturismo Principe Amedeo","restaurant","Via Staffalo","Sommacampagna","Verona","37066","45.391566","10.8019358"
"Oasi","restaurant","Via Vittorio Veneto","Bagnolo","Verona","37060","45.2724164","10.8929926"
"Da Franco","restaurant","Via dell'Industria","Pradelle","Verona","37060","45.2805684","10.8780408"
"Da Ferruccio","restaurant","Via 9 Maggio","Pradelle","Verona","37060","45.2843202","10.8684259"
"Antica Trattoria da Costa","restaurant","Via Guglielmo Marconi","Tormine","Verona","37122","45.2877378","10.8227633"
"La vineria vini sfusi in bottiglia","restaurant","Via Caterina Bon Brenzoni","Mozzecane","Verona","37060","45.3114279","10.819018"
"Pizzeria al taglio Lobbia (S.N.C.)","restaurant","Stradella Lobbia","Verona","Verona","37139","45.444083","10.943647"
"","restaurant","Via Brolo","Cavalcaselle","Verona","37014","45.425764","10.7161869"
"Pizzeria Ristorant Rosati","restaurant","Via Caterina Bon Brenzoni","Mozzecane","Verona","37060","45.3094309","10.8177722"
"Pizzeria Due Forni","restaurant","Corso Giuseppe Garibaldi","Villafranca di Verona","Verona","37069","45.3504661","10.8472443"
"Classique Cafè Restaurant","restaurant","Via Albarello","Lazise","Verona","37017","45.5062917","10.7309982"
"Ai Tre Volti","restaurant","Via Angelo Messedaglia","Villafranca di Verona","Verona","37069","45.3490513","10.8464604"
"Bar Trattoria Corte Girlanda","restaurant","Strada Bresciana","Verona","Verona","37139","45.4466813","10.8988063"
"La bottega della pizza - Bar enoteca","restaurant","Via Roma","Quistello","Verona","37060","45.3041697","10.8137891"
"Pizza al taglio ""Doppio Zero""","restaurant","Via Caterina Bon Brenzoni","Mozzecane","Verona","37060","45.3099154","10.8177578"
"Restaurant Al Bacio","restaurant","Via Paina","Malcesine","Verona","37018","45.7666441","10.8101608"
"Ristaurante al Castello","restaurant","Via Porta del Lion","Lazise","Verona","37017","45.5042177","10.7330339"
"Il Cenacolo","restaurant","Via Teatro Filarmonico","Verona","Verona","37121","45.4391082","10.991162"
"Antico Caffe Dante","restaurant","Piazza dei Signori","Verona","Verona","37121","45.4435421","10.9977804"
"La Cantina del 15","restaurant","Corso Castelvecchio","Verona","Verona","37121","45.4390555","10.9875826"
"","restaurant","Via Fontane","Pastrengo","Verona","37010","45.4954196","10.8001657"
"Asso de Cope","restaurant","Via Rinaldo da Villafranca","Villafranca di Verona","Verona","37069","45.3490927","10.8443287"
"Ristorante La Ginestra","restaurant","Corso Milano","Verona","Verona","37138","45.4434585","10.9688369"
"Assaporito","restaurant","Viale del Lavoro","Verona","Verona","37135","45.4138645","10.9788092"
"Tratoria ""Poci""","restaurant","Via San Sebastiano","Cologna Veneta","Verona","37044","45.3178061","11.4297949"
"Pergolo","restaurant","Calle Prima","Lazise","Verona","37017","45.50565","10.7323991"
"Pizzeria Pan Per Focaccia","restaurant","Via Francesco Feliciano Scolari","Lazise","Verona","37017","45.5061082","10.7333637"
"Ristorante Antico ristoro","restaurant","Strada comunale n.79 dei Gazzini","Sommacampagna","Verona","37060","45.3798634","10.7844142"
"Signorvino","restaurant","Corso Porta Nuova","Verona","Verona","37122","45.4379781","10.9912504"
"Lao di Fang - ristorante cinese","restaurant","Via Primo Maggio","Bussolengo","Verona","37012","45.4484731","10.8682212"
"","restaurant","Via Custoza","Villafranca di Verona","Verona","37062","45.3613263","10.798348"
"El Pirlar","restaurant","Via Volpare","Villafranca di Verona","Verona","37062","45.3308762","10.8240744"
"Ristorante Sant'Eufemia","restaurant","Via Francesco Emilei","Verona","Verona","37121","45.4433532","10.9944104"
"Yan","restaurant","Via Teatro Filarmonico","Verona","Verona","37122","45.4390536","10.990946"
"Tigella Bella","restaurant","Via Sottoriva","Verona","Verona","37121","45.4443315","11.0006213"
"Osteria Nori","restaurant","Via Ponte Nuovo","Verona","Verona","37121","45.4434837","11.0007229"
"Trattoria Vecio Mulin","restaurant","Via Sottoriva","Verona","Verona","37121","45.4449375","11.0008113"
"Macafame","restaurant","Via delle Fogge","Verona","Verona","37121","45.4437732","10.9977511"
"San Quirico","restaurant","Via Gaetano Donizetti","Sona","Verona","37060","45.4375854","10.8241985"
"Pizzeria Amabile","restaurant","Via Bosco","Palazzolo","Verona","37060","45.4431266","10.819974"
"Pizzeria dai Beghini","restaurant","Via Discesa Chiesa","Sona","Verona","37060","45.4328972","10.8324487"
"Edelweiss","restaurant","Via Prada","San Zeno di Montagna","Verona","37010","45.6731492","10.7802088"
"Ristorante Tamburino Sardo","restaurant","Strada del Tamburino Sardo","Sommacampagna","Verona","37066","45.3784775","10.8149127"
"Al Lumicino","restaurant","Via Gabbia","Isola della Scala","Verona","37063","45.2437462","11.0518105"
"Bengio","restaurant","Via Gardesana","Lazise","Verona","37017","45.4993696","10.7370018"
"Cristina","restaurant","Gardesana Orientale","Lazise","Verona","37017","45.4995724","10.7369634"
"Gem's Brew Pub","restaurant","Gardesana Orientale","Lazise","Verona","37017","45.494638","10.739181"
"L'Unico","restaurant","Via Copernico","Cisano","Verona","37011","45.5355357","10.7280452"
"Gio","restaurant","Via Santa Cristina","Cisano","Verona","37011","45.5432533","10.7245972"
"I Remenghi","restaurant","Via San Rocco","Roverè Veronese","Verona","37028","45.5524885","11.0858469"
"Ca' del Diaolo","restaurant","Via Guglielmo Marconi","Sant'Andrea","Verona","37030","45.5847252","11.1526878"
"Anselmi","restaurant","Piazza delle Erbe","Verona","Verona","37121","45.4431628","10.9974555"
"Agriturismo La Perlara","restaurant","Via Trezzolano","Verona","Verona","37141","45.5024626","11.0814496"
"Osteria Al Parigino","restaurant","Via Trezzolano","Verona","Verona","37141","45.500045","11.0776409"
"","restaurant","Strada della Genovesa","Verona","Verona","37135","45.3963035","10.9737156"
"Trattoria Osteria del popolo","restaurant","Via Torrente Vecchio","Verona","Verona","37127","45.4724146","10.9887737"
"Osteria a la Carega","restaurant","Via Cadrega","Verona","Verona","37121","45.4451743","10.9945003"
"Trattoria Cappuccini","restaurant","Via Franco Faccio","Verona","Verona","37122","45.428165","10.9946268"
"Ristorante Antica Torretta","restaurant","Piazza Broilo","Verona","Verona","37121","45.4474123","10.9990128"
"Osteria il borgo dei templari","restaurant","Via Michelangelo Buonarroti","Valeggio sul Mincio","Verona","37067","45.3535755","10.7232168"
"Pizzeria Sorriso","restaurant","Via Beniamino Romagnoli","Verona","Verona","37139","45.4389101","10.9423734"
"Trattoria Alberti","restaurant","Piazza Vittoria","Velo Veronese","Verona","37030","45.6055849","11.095702"
"Pizzeria Lessinia","restaurant","Piazza Vittoria","Velo Veronese","Verona","37030","45.6056187","11.0960724"
"Pizzeria Da Nello","restaurant","Viale Vittorio Bachelet","Bussolengo","Verona","37012","45.4632652","10.8653176"
"Pizza d'asporto Happy pizza","restaurant","Via San Pietro","Valeggio sul Mincio","Verona","37067","45.3566702","10.7400938"
"da Battista","restaurant","Via Macello","Spinimbecco","Verona","37049","45.1598708","11.3635663"
"Pizzeria Ristorante Dell'Epoca","restaurant","Via dei Lamberti","Verona","Verona","37134","45.4078554","10.9993151"
"Bordovasca","restaurant","Viale Olimpia","Villafranca di Verona","Verona","37069","45.3515613","10.8289125"
"Alla Fedeltà","restaurant","Via Rodi","Verona","Verona","37139","45.4430569","10.9386598"
"Pepenero","restaurant","Via Beniamino Romagnoli","Verona","Verona","37139","45.439004","10.9442724"
"Pizza & Cafè","restaurant","Via Scala","Verona","Verona","37121","45.4408029","10.9968493"
"La Fontanina","restaurant","Portichetti Fontanelle Santo Stefano","Verona","Verona","37128","45.4492157","11.0006247"
"Locanda Castelvecchio","restaurant","Corso Castelvecchio","Verona","Verona","37121","45.4389894","10.9873216"
"Osteria alla busa","restaurant","Piazza Pozza","Verona","Verona","37123","45.4413588","10.9775984"
"La Negra Tomasa","restaurant","Piazza Villafranchetta","Villafranca di Verona","Verona","37069","45.3537241","10.8445824"
"Al Gondoliere","restaurant","Piazza Vittorio Emanuele","Malcesine","Verona","37018","45.7646792","10.8079125"
"Ristorante Pizzeria Grotta Azzurra","restaurant","Via Scuderlando","Verona","Verona","37135","45.417593","10.9858762"
"La Molinara","restaurant","Piazzetta Ottolini","Verona","Verona","37121","45.4447629","10.9941807"
"Gran Caffè Excelsior","restaurant","Via Portici","Verona","Verona","37121","45.442316","10.9969872"
"Osteria le Vecete","restaurant","Via Pellicciai","Verona","Verona","37121","45.4421233","10.9956148"
"Piscaria del Bugiardo","restaurant","Corso Sant'Anastasia","Verona","Verona","37121","45.4448029","10.9992185"
"Osteria Ponte di Pietra","restaurant","Ponte Pietra","Verona","Verona","37121","45.447374","10.9995787"
"La Locanda della seconda Balena","restaurant","Vicolo Balena","Verona","Verona","37121","45.44171","10.9954445"
"Trattoria Pane e Vino","restaurant","Via Giuseppe Garibaldi","Verona","Verona","37121","45.4458897","10.9955794"
"Caffè le Fogge","restaurant","Via delle Fogge","Verona","Verona","37121","45.4439617","10.9975714"
"Osteria Monte Baldo","restaurant","Via Rosa","Verona","Verona","37121","45.4445984","10.9969441"
"Osteria del Bugiardo","restaurant","Corso Porta Borsari","Verona","Verona","37121","45.4429644","10.9955694"
"Tapasotto","restaurant","Galleria Pellicciai","Verona","Verona","37121","45.44177","10.9949201"
"Oste Scuro","restaurant","Vicolo San Silvestro","Verona","Verona","37122","45.4383268","10.9876826"
"Osteria Casa Vino","restaurant","Vicolo Morette","Verona","Verona","37121","45.4393147","10.9891642"
"Osteria San Bernardino","restaurant","Via Aurelio Saffi","Verona","Verona","37123","45.4375439","10.9805534"
"Ristorante Alla Bassona","restaurant","Via Elvira Miniscalchi","Verona","Verona","37026","45.4593261","10.9017495"
"Ristorante Pizzeria Al Ventitre","restaurant","Via Albarello","Lazise","Verona","37017","45.5063922","10.7315885"
"Pizzeria Dal Baffo","restaurant","Vicolo Aleardo Gafforini","Lazise","Verona","37017","45.5058796","10.7328756"
"Al Marciapiè","restaurant","Via Arco","Lazise","Verona","37017","45.5058526","10.731687"
"Ristorante Pizzeria Berengario","restaurant","Piazza Chiesa","Albisano","Verona","37010","45.6108515","10.6861512"
"Ristorante Arche","restaurant","Via Arche Scaligere","Verona","Verona","37121","45.4436941","10.9991554"
"Osteria Bertoldo","restaurant","Vicolo Cadrega","Verona","Verona","37121","45.444811","10.994569"
"Osteria Sgarzarie","restaurant","Corte Sgarzarie","Verona","Verona","37121","45.4433655","10.9955948"
"Casa Lady Garda","restaurant","Via Verdi","Garda","Verona","37016","45.5747746","10.7078294"
"Jolly","restaurant","Via Marco Polo","Garda","Verona","37016","45.5763457","10.7127789"
"Al Pie` Della Creta","restaurant","Via Bacilieri","Molina","Verona","37022","45.6116141","10.9098025"
"Hotel Ristorante Pizzeria Oliveto","restaurant","Via Santa Francesca","Navene","Verona","37018","45.799459","10.8377981"
"Ristorante Pizzeria ""Al Laghetto Cicogna""","restaurant","Via Dossi","Cicogna","Verona","36026","45.2763958","11.4868139"
"Ristorante al lago delle Rose","restaurant","Via Giovanni Verga","Zevio","Verona","37059","45.3554563","11.0543821"
"Ristorante Pizzeria Paradiso","restaurant","Lungolago Vittorio Veneto","Albisano","Verona","37010","45.6114174","10.6863274"
"Corte Farina","restaurant","Corte Farina","Verona","Verona","37121","45.4414187","10.9942194"
"Pizzeria Siè Borghi","restaurant","Via Paolo Caliari","Verona","Verona","37131","45.4458033","11.0228484"
"Enoteca Ristorante Villa Gritti","restaurant","Via Villabella","San Bonifacio","Verona","37047","45.3993701","11.2438702"
"Villa Canova","restaurant","Via Santa Teresa","Roverchiara","Verona","37050","45.2617863","11.2276355"
"Bar Osteria San Zeneto","restaurant","Stradone Antonio Provolo","Verona","Verona","37121","45.4393557","10.9856415"
"Tre Camini","restaurant","Località Albarella","Albarè","Verona","37010","45.5783431","10.751203"
"Trattoria Il Feudo","restaurant","Via Antonio della Torre","Mezzane di Sotto","Verona","37030","45.4925168","11.1064216"
"La Locanda","restaurant","Via Municipio","San Martino Buon Albergo","Verona","37036","45.4576524","11.1069998"
"Pepenero Pizza & Grill","restaurant","Via San Vito","Zimella","Verona","37040","45.3477654","11.3732872"
"Trattoria - Pizzeria 'La Cola'","restaurant","Strada per Montecchio","Verona","Verona","37127","45.4980103","10.9957111"
"Dal Mori","restaurant","Via Roma","Sommacampagna","Verona","37066","45.4150547","10.895673"
"Pizzeria Trattoria Acquario","restaurant","Via San Felice","Cologna Veneta","Verona","37044","45.3067857","11.4047943"
"Villa Eva","restaurant","Via Primo Maggio","Costermano sul Garda","Verona","37010","45.5873662","10.7471997"
"La Quercia","restaurant","Via Tonale","Verona","Verona","37126","45.4452172","10.9907415"
"PizzaExpress","restaurant","Via Giovanna Murari Brà","Verona","Verona","37136","45.420834","10.9766391"
"","restaurant","Via Roveggia","Verona","Verona","37136","45.4211419","10.9773245"
"Tutti i gusti","restaurant","Via Roveggia","Verona","Verona","37136","45.4199667","10.9753742"
"Pizzeria Corte Fusina","restaurant","Via Fusina","Grezzana","Verona","37023","45.5156598","11.0159766"
"Pizzeria E Gelateria Da Pierina","restaurant","Via Crosara","Grezzana","Verona","37023","45.5723812","10.9921213"
"Pizzeria Da Mirko","restaurant","Via Roma","Grezzana","Verona","37023","45.5196701","11.0165149"
"Magnum Sev","restaurant","Via Olmo","Verona","Verona","37141","45.4556357","11.060062"
"Le Guardie Ristorante","restaurant","Via Guardie","Costermano sul Garda","Verona","37010","45.5835106","10.7403047"
"Agriturismo la Pace","restaurant","Via Galileo Ferraris","Valeggio sul Mincio","Verona","37067","45.2954922","10.7325667"
"Ristorante Pizzeria Primavera","restaurant","Via Giacomo Muraro","Lonico","Verona","37020","45.5748619","11.0383152"
"Ristorante Veneranda","restaurant","Villaggio Termine","Corbiolo","Verona","37021","45.5891338","11.0339873"
"Ristorante e Locanda Guglielmini","restaurant","Via Lessini","Lonico","Verona","37020","45.5746437","11.0397644"
"Agriturismo Corte Verzè","restaurant","Località Cambran","Cazzano di Tramigna","Verona","37030","45.4785702","11.2151632"
"Opificio dei sensi","restaurant","Via Brolo Musella","San Martino Buon Albergo","Verona","37036","45.4434089","11.0798171"
"Trattoria al Pescatore","restaurant","Via Alessandro Manzoni","Garda","Verona","37016","45.5754106","10.7074431"
"June Beach Restaurant","restaurant","Via Gardesana","Assenza","Verona","37132","45.7283558","10.7813607"
"Re Gallo","restaurant","Via Rezzola","Sommacampagna","Verona","37066","45.4160892","10.86323"
"Dolci Colli - Bike & Family Hotel","restaurant","Via Mantova","Peschiera del Garda","Verona","37019","45.4271572","10.6857494"
"Trattoria Begnoni","restaurant","Via Francesco Miniscalchi","Mozzecane","Verona","37060","45.3205325","10.8302565"
"Croce del Vento Agriturismo","restaurant","Via Verdella","Tregnago","Verona","37039","45.5337046","11.1817974"
"La Genuina","restaurant","Via Enrico Fermi","Verona","Verona","37135","45.401584","10.9724004"
"Brunelli Winery","restaurant","Via Cariano","San Pietro in Cariano","Verona","37029","45.5168776","10.8736093"
"Sushi Noi","restaurant","Via Giulio Pastore","Peschiera del Garda","Verona","37019","45.4501766","10.6644299"
"Pizza al taglio da Bobo","restaurant","Via Aniene","Verona","Verona","37136","45.4173112","10.9598569"
"Trattoria Albarelle","restaurant","Via Crocetta","Gazzo Veronese","Verona","37060","45.1610818","11.1298797"
"Trattoria Dal Gal","restaurant","Via Don Gregorio Segala","Verona","Verona","37139","45.4414936","10.9421916"
"La Carbonaia","restaurant","Vicolo Draga","Peschiera del Garda","Verona","37019","45.443412","10.6955535"
"","restaurant","Borgo Giuseppe Garibaldi","Bardolino","Verona","37011","45.5498048","10.7225403"
"Osteria al Capitel","restaurant","Via Gardesana dell'Acqua","Bardolino","Verona","37011","45.55261","10.7209509"
"Cucina typica","restaurant","Via Toscanini","Bardolino","Verona","37011","45.5482294","10.7234547"
"Cordonega","restaurant","Piazetta Cordonega","Lazise","Verona","37017","45.5055782","10.7328869"
"Trattoria Pizzeria Da Giuseppe","restaurant","Viale Dante Alighieri","Bardolino","Verona","37011","45.5486863","10.7202487"
"Osteria Enoteca - Corte Torcolo","restaurant","Via Vittorio Veneto","Cavaion Veronese","Verona","37010","45.5382147","10.7678916"
"Ristorante La Magnolia","restaurant","Via Berengario","Cavaion Veronese","Verona","37010","45.5363237","10.7668258"
"Il posto castello","restaurant","Via Strada Nuova","Illasi","Verona","37031","45.4677893","11.1949277"
"Aristopizza","restaurant","Via Sansini","Vestenanova","Verona","37030","45.6252425","11.2141142"
"Ristorante Cinese Asia","restaurant","Via Cornelio Nepote","Verona","Verona","37131","45.4466908","11.0321014"
"La Griglia","restaurant","Via Leoncino","Verona","Verona","37121","45.4385703","10.9958355"
"Nastro Azzurro","restaurant","Vicolo Listone","Verona","Verona","37121","45.439493","10.9924151"
"Trattoria dal Taio","restaurant","Via Fratelli Alessandri","Verona","Verona","37124","45.4754717","10.950321"
"Al Castel","restaurant","Località Castèl","Brentino","Verona","37020","45.6444394","10.8768719"
"La Cantinetta","restaurant","Via San Martino","Bardolino","Verona","37011","45.5466645","10.7206495"
"Agli Oleandri","restaurant","Piazza Betteloni","Bardolino","Verona","37011","45.5481407","10.7208624"
"Due Torri","restaurant","Via Berto Barbarani","Bardolino","Verona","37011","45.5482005","10.7206671"
"Bencistò","restaurant","Viale Dante Alighieri","Bardolino","Verona","37011","45.5510866","10.7190418"
"Club della Mezza Eta'","restaurant","Piazzale Gramsci","Bardolino","Verona","37011","45.5521686","10.718653"
"Ristorante Tre Risotti","restaurant","Via Luigia Poloni","Verona","Verona","37122","45.4357193","10.9861713"
"Il vicoletto trattoria","restaurant","Via Santa Maria in Chiavica","Verona","Verona","37121","45.4440393","10.9993798"
"Il Conte del Pesin","restaurant","Lungadige Bartolomeo Rubele","Verona","Verona","37121","45.4408518","11.0006075"
"Locanda Gallehus","restaurant","Via Peschiera","Pacengo","Verona","37017","45.4654361","10.719675"
"Bauli in Autostrada","restaurant","Autostrada Serenissima","Sommacampagna","Verona","37066","45.4137395","10.8693702"
"Al Caminetto","restaurant","","Bosco Chiesanuova","Verona","37021","45.6856243","11.0861364"
"Pizzeria La Caneva","restaurant","Piazza Borgo","Bosco Chiesanuova","Verona","37021","45.6216654","11.0310473"
"Ristorante Pizzeria da Guido","restaurant","Località Pasquali","Valeggio sul Mincio","Verona","37067","45.3875312","10.7366858"
"Ristorante La Terrazza","restaurant","Via Cristoforo Colombo","Bardolino","Verona","37011","45.5455311","10.7232958"
"Ristorante pizzeria Athena","restaurant","Via Sandro Pertini","Rubiana","Verona","37013","45.6067207","10.7924789"
"Albergo ristorante al Vignol","restaurant","Via Giulio Sandri","Rubiana","Verona","37013","45.607144","10.8000943"
"Zucchi","restaurant","SC","Selva di Progno","Verona","37030","45.623128","11.1593661"
"La Taverna","restaurant","Via Umberto 1°","San Giovanni Ilarione","Verona","37035","45.5237343","11.2360559"
"HC sushi","restaurant","Via Gardesana","Lazise","Verona","37017","45.5081064","10.7340451"
"Crocca","restaurant","Piazzetta Alcide De Gasperi","Verona","Verona","37122","45.4365133","10.9947873"
"Sun Restaurant","restaurant","Via Pellicciai","Verona","Verona","37121","45.442408","10.9961164"
"La Porta Ristorante Pizzeria","restaurant","Piazza Statuto","Bardolino","Verona","37011","45.5472172","10.7216761"
"Altro Impero","restaurant","Piazza dei Signori","Verona","Verona","37121","45.4432563","10.9980988"
"Citta D'oro","restaurant","Via del Commercio","San Bonifacio","Verona","37047","45.406147","11.239148"
"Bue Nero","restaurant","Piazzetta Navona","Verona","Verona","37121","45.4424801","10.9985071"
"Il Duomo","restaurant","Via Duomo","Verona","Verona","37121","45.4460612","10.9980074"
"Pizzeria d'asporto Dalmatino","restaurant","Via Pietro Sgulmero","Verona","Verona","37132","45.4306302","11.0595169"
"Il Desco","restaurant","Via Dietro San Sebastiano","Verona","Verona","37121","45.4416374","10.9999434"
"Il Cappero","restaurant","Via Generale Gaetano Giardino","Verona","Verona","37125","45.4452684","10.9869456"
"Re Teodorico","restaurant","Piazzale Castel San Pietro","Verona","Verona","37129","45.4484159","11.0022263"
"Ristorante Groto De Corgnan","restaurant","Via Corgnan","Sant'Ambrogio di Valpolicella","Verona","37015","45.5242628","10.8412561"
"Pizzeria Bardolino","restaurant","Via Fosse","Bardolino","Verona","37011","45.5477136","10.7223837"
"Pizzeria Focacceria Quattrocento","restaurant","Via Valpantena","Verona","Verona","37142","45.4993505","11.0177486"
"Trattoria alla colonna","restaurant","Largo Pescheria Vecchia","Verona","Verona","37121","45.4433505","10.9997247"
"Officina","restaurant","Via Sant'Antonio","Verona","Verona","37122","45.4370296","10.9887797"
"La Conchiglia","restaurant","Via Leoncino","Verona","Verona","37121","45.4381685","10.9945445"
"Bella Napoli","restaurant","Via Guglielmo Marconi","Verona","Verona","37122","45.4371025","10.9877112"
"","restaurant","Via Ca' di Cozzi","Verona","Verona","37124","45.4604689","10.9720659"
"Grotta Azzurra 3","restaurant","Via Sogare","Verona","Verona","37138","45.4355243","10.9640521"
"Ghiottone","restaurant","Via Bassone","Verona","Verona","37139","45.453323","10.8997646"
"Frèkt Arrosticini","restaurant","Via Francia","Verona","Verona","37135","45.4104504","10.9743158"
"La Tigella Verona","restaurant","Via Angelo Scarsellini","Verona","Verona","37123","45.4409981","10.9804541"
"Piscaria vino&cucina di mare","restaurant","Corso Sant'Anastasia","Verona","Verona","37121","45.4448179","10.9991868"
"Hosteria Moderna","restaurant","Via Angelo Scarsellini","Verona","Verona","37123","45.4408953","10.9801174"
"Al Pompiere","restaurant","Vicolo Regina d'Ungheria","Verona","Verona","37121","45.4419491","10.9979381"
"Antica Trattoria Pero D'Oro","restaurant","Via Ponte Pignolo","Verona","Verona","37129","45.4451459","11.0041731"
"Ristorante Cinese","restaurant","Via Fama","Verona","Verona","37121","45.4434705","10.9953251"
"Birra in giardino","restaurant","Via Gardesane","Verona","Verona","37139","45.460608","10.8841557"
"","restaurant","Via Croce Bianca","Verona","Verona","37139","45.4467852","10.9467368"
"Le Cantine de l'Arena","restaurant","Piazzetta Scalette Rubiani","Verona","Verona","37121","45.4397751","10.9933237"
"Locanda Ristori","restaurant","Vicolo Valle","Verona","Verona","37122","45.4375543","10.9869248"
"Yard","restaurant","Corso Cavour","Verona","Verona","37121","45.4410843","10.9918318"
"Il Ciottolo","restaurant","Corso Cavour","Verona","Verona","37121","45.440103","10.9898384"
"Gemma Pizzeria","restaurant","Via Mario Todeschini","Verona","Verona","37126","45.4457151","10.9871178"
"Pizzalonga Away Verona","restaurant","Via Filippo Rosa Morando","Verona","Verona","37131","45.4405017","11.0190449"
"Enocibus","restaurant","Vicolo Pomodoro","Verona","Verona","37121","45.4394023","10.9904611"
"Trattoria Impero","restaurant","Piazza dei Signori","Verona","Verona","37121","45.4433446","10.9975853"
"Pizzeria da Roby","restaurant","Via Leonardo da Vinci","Verona","Verona","37138","45.4385085","10.9731468"
"Locanda 4 Cuochi","restaurant","Via Alberto Mario","Verona","Verona","37121","45.4401801","10.9937928"
"Trattoria Amarone","restaurant","Via Campagnetta","Verona","Verona","37127","45.4689073","10.9874172"
"Yama Sushi Restaurant","restaurant","Corso Milano","Verona","Verona","37138","45.4453514","10.9570423"
"Osteria al Borgo","restaurant","Via Baldassare Longhena","Verona","Verona","37138","45.4400348","10.9715546"
"Pizzeria Bellaluna","restaurant","Via Sardegna","Verona","Verona","37139","45.4357398","10.9483125"
"Monsuà","restaurant","Strada dell'Alpo","Verona","Verona","37136","45.402363","10.9489836"
"Oasi Gourmet","restaurant","Via Osoppo","Verona","Verona","37124","45.4575942","10.9794572"
"Leone Da Ciro 1924","restaurant","Via Giovanni Zambelli","Verona","Verona","37121","45.4404359","10.9978595"
"Gastro Gusto","restaurant","Piazzetta Alcide De Gasperi","Verona","Verona","37122","45.4367385","10.9947584"
"La Piazzetta","restaurant","Corte San Giovanni in Foro","Verona","Verona","37121","45.4430077","10.9949754"
"Pizzeria tre archi","restaurant","Via Alessandro Poerio","Verona","Verona","37124","45.4589084","10.9784395"
"Miski","restaurant","Via Santa Giuliana","Verona","Verona","37128","45.4712537","11.0004143"
"Vesuvio","restaurant","Regaste San Zeno","Verona","Verona","37123","45.4416761","10.9827349"
"Ippopotamo","restaurant","Piazza Bra","Verona","Verona","37121","45.4387332","10.9917135"
"Osteria da Ugo","restaurant","Vicolo Dietro Sant'Andrea","Verona","Verona","37121","45.4403013","10.9990351"
"Osteria Sottoriva","restaurant","Via Sottoriva","Verona","Verona","37121","45.4444996","11.0003816"
"Osteria Garden Verona","restaurant","Via del Pestrino","Verona","Verona","37134","45.4172117","10.999861"
"Mic Ramen","restaurant","Piazza Pradaval","Verona","Verona","37122","45.4364895","10.9900085"
"Scapin","restaurant","Via San Michele alla Porta","Verona","Verona","37121","45.4426602","10.9927012"
"Ristorante Italia","restaurant","Via Goffredo Mameli","Verona","Verona","37126","45.4512086","10.9897191"
"Hosteria La Vecchia Fontanina","restaurant","Piazzetta Chiavica","Verona","Verona","37121","45.4440476","10.9999865"
"Osteria alla Torre","restaurant","Piazza delle Erbe","Verona","Verona","37121","45.4428301","10.9976557"
"Porto Alegre","restaurant","Corso Porta Nuova","Verona","Verona","37122","45.4328637","10.988446"
"Osteria Carroarmato","restaurant","Vicolo Gatto","Verona","Verona","37121","45.4444092","10.9999291"
"La Canonica","restaurant","Vicolo San Matteo","Verona","Verona","37121","45.4418641","10.9940403"
"Pizzeria Dal Grano","restaurant","Piazza Risorgimento","Verona","Verona","37139","45.4392964","10.9480795"
"Osterial al Boscarel","restaurant","Vicolo Cieco Boscarello","Verona","Verona","37123","45.4408965","10.9831689"
"Miscusi","restaurant","Corso Porta Nuova","Verona","Verona","37122","45.4374553","10.9913117"
"Ostinati","restaurant","Corso Porta Nuova","Verona","Verona","37122","45.435907","10.9906925"
"Al Capitan Della Cittadella","restaurant","Piazza Cittadella","Verona","Verona","37122","45.4370113","10.9930823"
"Sushi Kochi","restaurant","Via Don Enrico Girardi","Verona","Verona","37137","45.4211206","10.9551244"
"Ristorante Scaligero","restaurant","Via Guglielmo Marconi","Verona","Verona","37122","45.437264","10.9879268"
"La Taverna","restaurant","Via Stella","Verona","Verona","37121","45.4417659","10.9989269"
"Yume Ramen","restaurant","Via Sant'Antonio","Verona","Verona","37122","45.436634","10.9896816"
"Rosa Blu","restaurant","Piazza Corrubbio","Verona","Verona","37123","45.44132","10.9797583"
"Trattoria Pizzeria San Zeno","restaurant","Piazza San Zeno","Verona","Verona","37123","45.4421952","10.9773879"
"Trattoria Ai Piloti","restaurant","Piazza San Zeno","Verona","Verona","37123","45.4421883","10.9773649"
"Al Calmiere","restaurant","Piazza San Zeno","Verona","Verona","37123","45.4424115","10.9778878"
"","restaurant","Interrato Acqua Morta","Verona","Verona","37129","45.4455145","11.0029603"
"La Poiana","restaurant","Via Segorte","Verona","Verona","37142","45.472982","11.0191613"
"Osteria Ripasso","restaurant","Via Umbria","Verona","Verona","37138","45.4445138","10.9619627"
"Trattoria Caprese","restaurant","Galleria Pellicciai","Verona","Verona","37121","45.4417142","10.9946965"
"Trattoria l'altra colonna","restaurant","Via Tezone","Verona","Verona","37122","45.4363072","10.9949224"
"Ranch Rocce Rosse","restaurant","Via Ponte Florio","Verona","Verona","37141","45.459806","11.0478335"
"PizzaVoglia","restaurant","Via Quattro Rusteghi","Verona","Verona","37135","45.4186366","10.9876794"
"La Botteghetta","restaurant","Via Don Enrico Tazzoli","Verona","Verona","37121","45.4385887","10.996239"
"Doppio Malto","restaurant","Viale del Lavoro","Verona","Verona","37135","45.4107042","10.9775378"
"Peperino Pizza&Grill","restaurant","Piazzetta Municipio","Verona","Verona","37121","45.4378634","10.9946668"
"Bistro con Amore - Vini e Cucina","restaurant","Via Guglielmo Marconi","Verona","Verona","37122","45.4369262","10.9874559"
"Trattoria Muramare","restaurant","Corso Porta Nuova","Verona","Verona","37122","45.4342245","10.9889565"
"La Tradision","restaurant","Via Guglielmo Oberdan","Verona","Verona","37121","45.4403827","10.9933632"
"Hosteria ll Punto Rosa","restaurant","Via Fratta","Verona","Verona","37121","45.4406136","10.9912394"
"Michelin","restaurant","Via Vittorio Veneto","Tregnago","Verona","37039","45.516109","11.165073"
"La Greca","restaurant","Viale Postumia","Villafranca di Verona","Verona","37069","45.3689826","10.8685691"
"Restaurant Piccolo Hotel","restaurant","Piazza Catullo","Garda","Verona","37016","45.5757393","10.706497"
"La degusteria","restaurant","Via San Michele","Pescantina","Verona","37026","45.4814601","10.8452206"
"Mei Shi Lin","restaurant","Via Luigi Pasteur","Verona","Verona","37135","45.4016139","10.9902421"
"Pizzeria Apollo","restaurant","Piazza San Marco","Pai di Sopra","Verona","37010","45.6528835","10.7249266"
"Locanda San Marco","restaurant","Piazza San Marco","Pai di Sopra","Verona","37010","45.6529694","10.7252321"
"Caminetto","restaurant","Via Gardesana","Malcesine","Verona","37018","45.7648994","10.8104539"
"Zushi","restaurant","Corso Giuseppe Garibaldi","Villafranca di Verona","Verona","37069","45.350275","10.8476553"
"Romeo e Giulietta","restaurant","Via Antonio Cesari","Verona","Verona","37131","45.4388109","11.0203732"
"Walle's","restaurant","Piazza Lino Tosoni","Villafranca di Verona","Verona","37069","45.3515575","10.8466147"
"il Borgo","restaurant","Via Palesella","Cerea","Verona","37053","45.2204947","11.2381885"
"La Darsena","restaurant","Piazza Lago","Cisano","Verona","37011","45.5296682","10.7261274"
"Casa Perbellini 12 Apostoli","restaurant","Vicolo Corticella San Marco","Verona","Verona","37121","45.4426516","10.9960526"
"Locanda Centrale","restaurant","Via G. Garibaldi","Cavaion Veronese","Verona","37010","45.5408003","10.7696759"
"Baitone Alpino","restaurant","Via Gardesana Orientale","Navene","Verona","37018","45.8093763","10.8514439"
"La Lanterna","restaurant","Via Centro","Caprino Veronese","Verona","37013","45.6477184","10.852213"
"Stella Alpina","restaurant","Strada Provinciale Monte Baldo","Ferrara di Monte Baldo","Verona","37020","45.6506942","10.8547013"
"Sushi elite","restaurant","Viale Postumia","Villafranca di Verona","Verona","37069","45.3610032","10.8568864"
"Stella","restaurant","Via Gardesana","Cassone","Verona","37018","45.7348136","10.7907158"
"Al Senato","restaurant","Via Verona","Vigasio","Verona","37068","45.329028","10.9489434"
"Pizzeria Centro","restaurant","Via Roma","Vigasio","Verona","37068","45.3176224","10.9415955"
"La Vecia Mescola","restaurant","Vicolo Chiodo","Verona","Verona","37121","45.4396339","10.9908364"
"Hotel Ristorante Miralago","restaurant","Contrada San Zeno","San Zeno di Montagna","Verona","37010","45.6311856","10.7232686"
"Ristorante Paradiso Imperfetto","restaurant","Via Don Marcellino Faccio","San Zeno di Montagna","Verona","37010","45.6305779","10.7223165"
"Pizzeria Camping Mamma Lucia","restaurant","Via Giuseppe Zanetti","San Zeno di Montagna","Verona","37010","45.6254427","10.720816"
"Ristorante Albergo Taccolini Annalisa","restaurant","Piazza degli Alpini","Belluno Veronese","Verona","37020","45.6854755","10.8986944"
"Trattoria El Bagolo Ristorantino","restaurant","Via Molina","Sona","Verona","37060","45.4343968","10.8330253"
"Bar Ristorante Belvedere","restaurant","Via Pineta Sperane","San Zeno di Montagna","Verona","37010","45.6270194","10.7314015"
"All'Ancora","restaurant","Corso Ospedale","Lazise","Verona","37017","45.5061604","10.7324444"
"Al Porto","restaurant","Piazza Giacomo Matteotti","Bardolino","Verona","37011","45.546924","10.7197846"
"Le Vele","restaurant","Piazza Lago","Cisano","Verona","37011","45.5302134","10.7259648"
"CountryHouse Soleneve","restaurant","","Prada","Verona","37010","45.6738308","10.7833763"
"Agriturismo Cà Longa","restaurant","","San Zeno di Montagna","Verona","37010","45.6314911","10.7570156"
"Albergo Ristorante Narciso","restaurant","Via Prada","Prada","Verona","37010","45.6644978","10.773795"
"Arco","restaurant","Via Arco","Lazise","Verona","37017","45.5058851","10.7318068"
"Agriturismo La Part","restaurant","Contrada La Pora","San Zeno di Montagna","Verona","37010","45.6475389","10.743428"
"Ristorante San Remo","restaurant","Via Panoramica","San Zeno di Montagna","Verona","37010","45.6509978","10.7414963"
"Ai Broli","restaurant","Via Broli Antichi","Villafranca di Verona","Verona","37062","45.3521559","10.8391025"
"Agriturismo Scriciol","restaurant","Via Cà Montagna","San Zeno di Montagna","Verona","37010","45.6393132","10.731817"
"Hotel Lessinia","restaurant","Via Bruno Brusco","Bosco Chiesanuova","Verona","37021","45.6198729","11.0357035"
"Al Bersgliere","restaurant","Via San Colombano","Bardolino","Verona","37011","45.5660492","10.7298556"
"Agriturismo Antica Corte Cason","restaurant","Via Cason","Tombazosana","Verona","37055","45.2920487","11.2525991"
"","restaurant","Via Casalveghe","Gazzolo","Verona","37040","45.3837634","11.3124794"
"Liston 12","restaurant","Piazza Bra","Verona","Verona","37121","45.4394082","10.992593"
"Olivo 1939","restaurant","Piazza Bra","Verona","Verona","37121","45.4391018","10.9921255"
"Bottega Vini","restaurant","Vicolo Scudo di Francia","Verona","Verona","37121","45.4416426","10.9971086"
